     3.04           OBSERVATION DATA    M (MIXED)           RINEX VERSION / TYPE
R12 6.13            Receiver Operator   20241017 040220 UTC PGM / RUN BY / DATE
A                                                           MARKER NAME
GEODETIC                                                    MARKER TYPE         
OBS                 AGENCY                                  OBSERVER / AGENCY   
6005F01017          TRIMBLE R12         6.13                REC # / TYPE / VERS
                    TRMR12          NONE                    ANT # / TYPE
 -2418118.2297  5385736.9100  2405926.3176                  APPROX POSITION XYZ
        1.7500        0.0000        0.0000                  ANTENNA: DELTA H/E/N
G   12 C1C L1C S1C C1X L1X S1X C2X L2X S2X C5X L5X S5X      SYS / # / OBS TYPES
R   12 C1C L1C S1C C1P L1P S1P C2C L2C S2C C2P L2P S2P      SYS / # / OBS TYPES
E   15 C1X L1X S1X C5X L5X S5X C7X L7X S7X C8X L8X S8X C6X  SYS / # / OBS TYPES
       L6X S6X                                              SYS / # / OBS TYPES
J   15 C1C L1C S1C C1X L1X S1X C1Z L1Z S1Z C2X L2X S2X C5X  SYS / # / OBS TYPES
       L5X S5X                                              SYS / # / OBS TYPES
C   18 C1X L1X S1X C5X L5X S5X C2I L2I S2I C7I L7I S7I C6I  SYS / # / OBS TYPES
       L6I S6I C7D L7D S7D                                  SYS / # / OBS TYPES
I    3 C5A L5A S5A                                          SYS / # / OBS TYPES
    30.000                                                  INTERVAL
  2024    10    17     4     2   30.0000000     GPS         TIME OF FIRST OBS
G L2X -0.25000                                              SYS / PHASE SHIFT   
R L1P  0.25000                                              SYS / PHASE SHIFT   
R L2C -0.25000                                              SYS / PHASE SHIFT   
J L2X  0.25000                                              SYS / PHASE SHIFT   
DBHZ                                                        SIGNAL STRENGTH UNIT
  7 R06 -4 R07  5 R08  6 R10 -7 R11  0 R16 -1 R22 -3        GLONASS SLOT / FRQ #
                                                            GLONASS COD/PHS/BIS 
                                                            END OF HEADER       
> 2024 10 17  4  2 30.0000000  0 43       0.000000000000
C59                                                                                                  36924272.939 7 192274311.49017        42.100                                                    36924257.635 7 156238534.96117        44.500    36924266.274 7 148678629.62617        43.900
C60                                                                                                  37413275.827 6 194820665.08016        41.300                                                    37413257.521 7 158307661.24417        43.900    37413267.880 7 150647646.24117        43.600
C26  24229372.237 7 127326105.92117        42.900    24229382.453 7  95081221.45717        46.000    24229374.441 7 126168649.08217        43.600                                                    24229371.012 7 102522331.09017        43.700    24229378.697 7  97561581.55617        42.100
C24  21540732.027 8 113197333.03218        48.700    21540735.761 8  84530503.31218        49.500    21540734.016 8 112168270.70618        48.000                                                    21540725.954 7  91145891.08717        46.000    21540732.825 7  86735628.47917        47.200
C39  36147363.803 8 189955651.49618        48.400    36147365.582 8 141849985.93518        49.000    36147365.710 7 188228784.87017        47.700                                                    36147355.638 7 152951307.99917        45.900    36147362.190 7 145550412.76417        43.900
C43  25509415.920 6 134052558.85116        39.700    25509439.274 6 100104297.92116        39.300    25509419.015 6 132834067.36816        37.900                                                    25509422.940 6 107938523.66416        38.700    25509434.691 6 102715692.47516        37.100
C38  35880459.664 7 188553087.87617        47.800    35880465.857 8 140802583.42518        49.400    35880461.388 7 186838925.06517        45.600                                                    35880454.385 7 151821934.64117        45.700    35880462.328 7 144475685.52917        44.700
C16                                                                                                  36213537.327 7 188573362.96917        47.400    36213539.384 7 145816881.15317        45.300    36213529.652 6 153231264.60016        41.700
C14                                                                                                  22604803.796 7 117709122.87617        46.400    22604802.401 8  91020216.58618        48.000    22604793.993 7  95648389.63217        45.600
C13                                                                                                  35950194.858 7 187202069.87117        47.800    35950197.708 7 144756511.55517        43.400    35950189.225 7 152116980.31517        44.600
C06                                                                                                  36223665.081 7 188626102.26517        44.500    36223663.124 7 145857652.02317        45.700    36223654.840 7 153274168.74317        42.800
C05                                                                                                  39225658.420 5 204258493.35715        32.800    39225665.469 6 157945492.41216        38.300    39225657.326 6 165976587.59816        36.000
C04                                                                                                  38460205.764 6 200272266.64816        36.700    38460213.323 7 154863224.71117        42.300    38460205.027 6 162737598.07216        40.900
C03                                                                                                  36058567.142 6 187766366.22916        40.600    36058566.923 7 145192835.97617        44.000    36058560.681 7 152575503.44417        42.900
C02                                                                                                  36895164.326 6 192122729.97216        36.500    36895164.041 7 148561464.48317        44.300    36895159.006 6 156115424.01216        40.800
C01                                                                                                  37331477.638 6 194394717.26916        39.400    37331482.705 7 150318316.19517        44.600    37331475.719 6 157961601.49416        40.900
R16  22353216.059 7 119406821.24117        44.600    22353214.101 7 119406816.24917        42.200    22353231.064 7  92871997.38417        42.500    22353231.705 7  92871976.41717        42.800
R06  21400623.118 5 114197735.46515        35.400    21400621.939 5 114197771.48515        34.000
I10  36501396.401 7 143239235.22717        47.900
G28  22938059.848 7 120540361.80717        42.900    22938058.601 7 120540368.80117        44.000    22938083.482 7  93927645.92717        45.600    22938086.903 7  90014029.39117        46.700
J02  37105450.626 6 194990459.52916        41.100    37105449.337 7 194990501.52817        44.900    37105446.336 6 194990510.84016        41.600    37105477.284 7 151940710.81117        45.800    37105478.587 7 145609843.50717        47.900
G18  22737378.202 6 119485535.99816        40.600    22737376.423 7 119485438.99717        43.900    22737401.358 7  93105524.07117        45.500    22737404.925 7  89226136.14717        46.600
G23  20158733.792 8 105934817.80818        48.100    20158732.119 8 105935052.79718        49.100    20158746.449 8  82546822.00518        50.700    20158747.010 8  79107382.79318        52.200
J03  36214676.541 6 190309275.20816        40.200    36214675.356 7 190309321.20517        43.400    36214672.498 6 190309347.94016        40.600    36214702.159 7 148293008.67817        42.800    36214703.245 7 142114123.66317        45.800
J07  36502215.454 6 191820354.70316        39.200    36502214.300 7 191820405.70517        42.600    36502208.993 7 191820363.44717        47.000    36502233.249 8 149470489.42318        49.300    36502232.013 8 143242539.45718        49.300
J04  38653737.833 7 203126697.33117        43.600    38653736.860 7 203126813.32817        47.100    38653734.099 7 203126778.70117        45.100    38653752.573 8 158280678.13718        48.300    38653751.047 8 151685638.93318        49.300
G10  21774232.928 7 114424360.34217        47.500                                                    21774248.600 7  89161905.86817        46.300    21774242.847 7  85446826.29017        46.800
C25  23598533.677 7 124011154.01817        42.700    23598549.516 7  92605791.20017        43.500    23598536.327 7 122883788.23917        43.700                                                    23598536.113 7  99853162.41717        43.000    23598545.463 6  95021586.40516        41.600
C33  23562353.022 7 123821162.94117        45.800    23562384.200 7  92463833.42217        46.500    23562355.072 7 122695375.62517        43.800                                                    23562361.385 7  99700071.66617        44.100    23562381.054 7  94875925.41317        43.800
C42  22994803.976 7 120838449.47917        46.400    22994822.021 8  90236543.22718        49.300    22994805.056 7 119739922.76917        46.100                                                    22994809.158 7  97298488.26017        45.600    22994818.617 7  92590529.38117        45.200
I03  41468667.421 7 162731889.79317        47.100
G12  22569714.814 6 118604741.73216        41.600                                                    22569736.275 7  92419537.37317        43.800
R07  21324596.753 7 114152261.79517        46.800    21324595.618 7 114152394.81817        45.000    21324607.407 7  88785258.35417        43.000    21324606.614 7  88785112.35717        42.400
R22  21876417.624 7 116777752.59117        44.200    21876417.661 7 116777774.59817        43.000    21876434.390 6  90827203.60316        41.900    21876434.802 6  90827194.60916        41.900
R10  20897045.461 7 111393047.70017        44.600    20897044.195 7 111393044.69917        43.500
G25  21976369.289 7 115486386.72117        42.800                                                    21976395.680 7  89989649.77917        44.300    21976394.745 8  86240104.65418        48.200
G24  22578573.567 6 118651110.08616        41.400                                                    22578592.036 7  92455334.06217        43.600    22578590.781 8  88603033.48518        48.100
E26  24908180.728 7 130893344.61017        46.600    24908192.012 7  97745053.62117        45.600    24908187.983 7 100294907.07417        46.800    24908191.573 8  99019986.64518        49.100    24908179.979 8 106244569.94218        49.200
E07  24554554.780 7 129035032.59717        46.500    24554565.155 7  96357360.77417        46.900    24554561.925 7  98871017.20317        47.300    24554565.303 8  97614196.28618        49.800    24554551.272 8 104736200.79818        50.100
E13  24843269.363 7 130552117.26917        46.500    24843288.892 7  97490212.98517        46.800    24843284.216 7 100033429.24617        47.000    24843288.513 8  98761827.92118        49.600    24843271.138 8 105967582.44018        48.000
E02  26866781.078 6 141185938.48216        39.200    26866803.467 7 105431157.77417        45.900    26866797.937 7 108181513.88117        44.900    26866802.942 8 106806345.13618        48.200    26866787.379 7 114598980.89017        44.700
E30  25529518.627 7 134158586.80817        46.000    25529539.800 7 100183489.50617        46.100    25529535.608 7 102796945.86917        47.600    25529539.657 8 101490122.49018        49.100    25529522.514 8 108894976.03418        48.600
E08  25961084.016 7 136426335.11317        42.600    25961097.825 7 101876816.00517        45.300    25961094.439 7 104534460.32717        47.000    25961097.835 8 103205646.46818        49.100    25961083.981 8 110735621.84618        48.100
> 2024 10 17  4  3  0.0000000  0 43       0.000000000000
C59                                                                                                  36924423.835 6 192275097.040 6        41.600                                                    36924408.549 7 156239173.163 7        45.100    36924417.173 7 148679236.918 7        43.700
C60                                                                                                  37413396.252 6 194821290.210 6        41.000                                                    37413377.757 7 158308169.111 7        43.600    37413388.047 7 150648129.509 7        43.200
C26  24242774.869 7 127396537.758 7        42.300    24242785.148 7  95133816.451 7        45.600    24242776.548 6 126238440.624 6        41.400                                                    24242774.188 7 102579042.266 7        43.900    24242781.652 7  97615548.603 7        42.000
C24  21538484.554 8 113185522.768 8        48.500    21538488.367 8  84521683.960 8        48.900    21538486.622 8 112156567.812 8        48.000                                                    21538478.480 7  91136381.520 7        46.000    21538485.600 7  86726579.046 7        47.200
C39  36149715.009 8 189968006.262 8        48.800    36149716.677 8 141859211.800 8        48.800    36149716.774 7 188241027.315 7        47.700                                                    36149706.772 7 152961255.919 7        45.600    36149713.352 7 145559879.319 7        43.800
C43  25520947.662 6 134113156.754 6        39.900    25520970.352 6 100149549.695 6        38.600    25520950.732 6 132894114.416 6        38.100                                                    25520954.251 6 107987316.875 6        38.600    25520965.509 5 102762124.721 5        35.200
C38  35880597.123 8 188553809.326 8        48.000    35880603.311 8 140803122.029 8        49.200    35880598.757 7 186839639.976 7        46.100                                                    35880591.817 7 151822515.464 7        45.700    35880599.836 7 144476238.210 7        44.900
C16                                                                                                  36215371.524 7 188582914.074 7        47.300    36215373.574 7 145824266.614 7        44.100    36215363.844 7 153239025.603 7        42.300
C14                                                                                                  22600437.236 7 117686385.132 7        46.100    22600436.097 7  91002634.251 7        47.900    22600427.451 7  95629913.298 7        45.500
C13                                                                                                  35946806.450 7 187184424.120 7        47.200    35946808.784 7 144742866.641 7        43.400    35946800.620 7 152102641.619 7        44.200
C06                                                                                                  36224267.950 7 188629239.857 7        45.700    36224265.677 7 145860078.158 7        46.200    36224257.418 7 153276718.246 7        42.700
C05                                                                                                  39225564.679 5 204258005.22415        32.500    39225572.261 6 157945114.80516        37.800    39225563.681 5 165976190.82615        35.900
C04                                                                                                  38460446.583 6 200273519.311 6        36.600    38460454.323 7 154864193.169 7        42.800    38460445.829 6 162738615.829 6        40.800
C03                                                                                                  36058715.261 6 187767135.939 6        40.900    36058714.701 7 145193431.048 7        43.300    36058708.621 7 152576128.796 7        42.700
C02                                                                                                  36895191.351 6 192122870.172 6        37.000    36895191.111 7 148561572.790 7        43.700    36895185.994 6 156115537.844 6        41.100
C01                                                                                                  37331628.628 6 194395504.614 6        39.400    37331634.282 7 150318924.865 7        44.500    37331626.868 6 157962241.154 6        40.900
R16  22371154.383 7 119502643.676 7        42.800    22371152.658 7 119502638.631 7        42.100    22371169.471 6  92946525.733 6        41.500    22371170.060 6  92946504.746 6        41.300
R06  21402173.323 5 114206001.065 5        35.300    21402170.205 5 114206037.124 5        33.700
I10  36501072.565 7 143237963.138 7        47.300
G28  22923013.962 7 120461295.593 7        42.000    22923013.094 7 120461302.606 7        44.100    22923037.278 7  93866036.094 7        44.900    22923040.734 7  89954986.678 7        46.300
J02  37105243.785 7 194989375.119 7        42.100    37105242.538 7 194989417.131 7        45.600    37105239.691 6 194989426.435 6        41.700    37105270.934 7 151939865.874 7        44.900    37105271.914 7 145609033.798 7        47.800
G18  22755492.017 6 119580723.874 6        41.800    22755490.146 7 119580626.882 7        43.900    22755515.441 7  93179696.263 7        43.700    22755518.702 7  89297217.790 7        45.400
G23  20156772.629 8 105924511.619 8        48.200    20156770.956 8 105924746.613 8        49.100    20156785.294 8  82538791.084 8        50.700    20156786.123 8  79099686.442 8        52.300
J03  36217094.384 6 190321981.184 6        40.400    36217093.374 7 190322027.197 7        42.600    36217089.584 6 190322053.916 6        40.400    36217120.088 7 148302909.469 7        43.000    36217121.242 7 142123611.911 7        46.500
J07  36502215.970 6 191820355.689 6        40.500    36502214.425 7 191820406.686 7        42.900    36502209.088 7 191820364.437 7        47.700    36502233.737 8 149470490.078 8        49.600    36502232.346 8 143242540.057 8        49.500
J04  38648727.140 7 203100364.523 7        43.600    38648725.667 7 203100480.522 7        47.200    38648723.640 7 203100445.893 7        45.500    38648741.814 8 158260158.956 8        48.100    38648740.042 8 151665974.702 8        49.100
G10  21759291.175 7 114345840.530 7        46.100                                                    21759306.360 7  89100721.649 7        45.400    21759300.965 7  85388191.410 7        47.200
C25  23581959.655 7 123924058.835 7        43.000    23581976.019 7  92540752.779 7        44.600    23581962.657 7 122797484.869 7        43.400                                                    23581962.241 7  99783033.999 7        43.800    23581971.708 7  94954851.326 7        42.100
C33  23553155.177 7 123772825.020 7        45.500    23553185.970 7  92427736.918 7        46.600    23553156.944 7 122647477.136 7        43.900                                                    23553162.992 7  99661150.224 7        44.400    23553182.561 7  94838887.271 7        43.600
C42  22995999.613 7 120844729.474 7        47.300    22996017.442 8  90241232.629 8        49.400    22996000.673 7 119746145.650 7        45.900                                                    22996004.414 7  97303544.721 7        45.700    22996013.699 7  92595341.135 7        45.200
I03  41458508.834 7 162692025.009 7        47.300
G12  22564781.572 6 118578817.907 6        41.800                                                    22564803.457 7  92399337.093 7        44.000
R07  21317076.049 7 114112002.081 7        47.600    21317075.404 7 114112135.090 7        46.100    21317086.024 7  88753945.214 7        42.800    21317085.911 7  88753799.216 7        42.700
R22  21885583.789 7 116826678.782 7        45.400    21885583.831 7 116826700.777 7        43.600    21885600.350 7  90865256.879 7        42.300    21885600.926 7  90865247.884 7        42.500
R10  20877058.545 7 111286508.480 7        44.600    20877057.686 7 111286505.486 7        42.700
G25  21961419.058 7 115407828.477 7        43.900                                                    21961446.058 7  89928435.720 7        43.200    21961445.751 7  86181441.221 7        47.300
G24  22596877.742 6 118747296.423 6        39.600                                                    22596896.927 6  92530284.192 6        41.300    22596894.604 7  88674860.637 7        47.800
E26  24907775.407 7 130891212.950 7        47.600    24907786.406 7  97743461.597 7        45.600    24907782.168 7 100293273.527 7        46.600    24907786.032 8  99018373.864 8        49.100    24907774.532 8 106242839.563 8        49.900
E07  24554526.608 7 129034886.564 7        47.300    24554537.355 7  96357251.682 7        47.300    24554534.058 7  98870905.277 7        47.600    24554537.520 8  97614085.776 8        50.300    24554523.866 8 104736082.233 8        50.400
E13  24856612.947 7 130622235.772 7        46.000    24856632.816 7  97542573.792 7        47.100    24856627.594 7 100087156.056 7        46.600    24856632.186 8  98814871.722 8        49.800    24856614.725 8 106024496.522 8        48.200
E02  26870027.498 6 141202996.602 6        41.600    26870049.303 7 105443895.959 7        45.200    26870044.426 7 108194584.355 7        45.900    26870048.962 8 106819249.456 8        48.600    26870033.363 7 114612826.775 7        45.300
E30  25520596.944 7 134111707.233 7        46.400    25520618.954 7 100148482.158 7        45.900    25520614.721 7 102761025.280 7        47.900    25520618.668 8 101454658.513 8        48.900    25520601.321 8 108856924.524 8        48.600
E08  25966922.719 7 136457014.342 7        43.800    25966935.926 7 101899725.566 7        45.200    25966932.346 7 104557967.569 7        46.400    25966936.152 8 103228854.873 8        48.600    25966922.305 8 110760523.632 8        48.400
> 2024 10 17  4  3 30.0000000  0 43       0.000000000000
C59                                                                                                  36924575.487 7 192275884.779 7        42.000                                                    36924559.995 7 156239813.156 7        44.100    36924568.609 7 148679845.904 7        43.800
C60                                                                                                  37413516.529 6 194821917.584 6        40.900                                                    37413498.340 7 158308678.805 7        43.800    37413508.677 7 150648614.511 7        43.700
C26  24256236.513 6 127467277.491 6        41.400    24256246.639 7  95186641.343 7        45.900    24256238.861 7 126308537.256 7        42.600                                                    24256235.475 7 102636001.345 7        44.100    24256243.141 7  97669751.560 7        42.100
C24  21536329.328 8 113174197.102 8        48.400    21536333.238 8  84513226.495 8        49.300    21536331.284 8 112145345.131 8        48.700                                                    21536323.414 7  91127262.167 7        45.800    21536330.386 7  86717900.958 7        47.300
C39  36152078.599 8 189980426.850 8        48.800    36152080.421 8 141868486.811 8        48.800    36152080.378 7 188253334.977 7        47.300                                                    36152070.288 7 152971256.828 7        45.600    36152076.904 7 145569396.301 7        43.900
C43  25532463.888 6 134173676.454 6        40.600    25532487.044 6 100194743.057 6        38.100    25532466.784 6 132954083.920 6        38.000                                                    25532470.950 6 108036047.039 6        39.100    25532481.934 5 102808497.003 5        35.100
C38  35880762.139 7 188554674.478 7        47.700    35880768.193 8 140803767.925 8        49.000    35880763.605 7 186840497.244 7        46.000                                                    35880756.754 7 151823211.945 7        46.000    35880764.680 7 144476900.965 7        45.100
C16                                                                                                  36217222.034 7 188592549.231 7        47.300    36217223.932 7 145831717.050 7        44.200    36217214.418 6 153246854.894 6        41.900
C14                                                                                                  22596087.983 7 117663739.060 7        46.000    22596087.437 8  90985122.804 8        48.100    22596078.694 7  95611511.459 7        45.300
C13                                                                                                  35943438.555 8 187166887.422 8        48.100    35943441.111 7 144729306.074 7        43.200    35943432.927 7 152088391.543 7        43.500
C06                                                                                                  36224889.354 7 188632475.058 7        44.300    36224887.074 7 145862579.764 7        45.400    36224878.749 7 153279347.069 7        42.400
C05                                                                                                  39225471.483 5 204257518.01315        32.900    39225478.709 6 157944737.92216        37.300    39225470.310 5 165975794.81615        35.700
C04                                                                                                  38460687.331 6 200274772.869 6        36.500    38460695.135 7 154865162.287 7        42.600    38460686.841 6 162739634.274 6        40.300
C03                                                                                                  36058863.105 6 187767906.489 6        40.800    36058862.960 7 145194026.764 7        43.800    36058856.591 7 152576754.840 7        42.500
C02                                                                                                  36895218.739 6 192123012.791 6        36.400    36895218.603 7 148561682.954 7        43.900    36895213.704 6 156115653.643 6        40.400
C01                                                                                                  37331780.098 6 194396293.110 6        39.500    37331785.733 7 150319534.413 7        44.600    37331778.554 6 157962881.764 6        40.700
R16  22389184.445 7 119598952.060 7        43.300    22389182.434 7 119598947.120 7        42.600    22389198.579 7  93021432.192 7        42.200    22389199.153 6  93021411.173 6        39.300
R06  21403748.848 5 114214411.538 5        35.100    21403746.217 5 114214447.567 5        33.700
I10  36500748.346 7 143236688.868 7        47.600
G28  22908029.519 6 120382548.859 6        41.600    22908028.092 7 120382555.850 7        44.500    22908052.248 7  93804675.155 7        44.900    22908055.302 7  89896182.493 7        46.400
J02  37105043.802 6 194988324.487 6        41.500    37105043.205 7 194988366.469 7        45.700    37105039.917 7 194988375.795 7        43.400    37105070.840 7 151939047.229 7        45.700    37105071.973 7 145608249.276 7        47.800
G18  22773635.890 6 119676069.708 6        40.900    22773634.097 7 119675972.718 7        43.400    22773659.284 7  93253991.534 7        43.500    22773662.413 7  89368417.397 7        45.700
G23  20154900.895 8 105914677.850 8        48.000    20154899.558 8 105914912.843 8        49.400    20154914.008 8  82531128.255 8        49.700    20154915.011 8  79092342.876 8        52.600
J03  36219521.629 6 190334736.156 6        40.600    36219520.453 7 190334782.158 7        43.000    36219517.367 6 190334808.885 6        39.100    36219546.784 7 148312848.398 7        42.900    36219548.405 7 142133136.713 7        46.600
J07  36502216.254 6 191820356.849 6        40.500    36502214.786 7 191820407.844 7        42.900    36502209.722 7 191820365.594 7        47.400    36502233.961 8 149470490.835 8        49.000    36502232.839 8 143242540.766 8        49.200
J04  38643705.997 7 203073978.323 7        43.000    38643704.686 7 203074094.311 7        47.200    38643702.717 7 203074059.700 7        45.700    38643720.982 7 158239598.176 7        47.600    38643719.156 8 151646270.595 8        49.500
G10  21744385.392 7 114267510.523 7        47.500                                                    21744400.396 7  89039685.307 7        45.000    21744395.141 7  85329698.246 7        47.300
C25  23565427.592 7 123837181.926 7        43.800    23565443.707 7  92475877.355 7        45.000    23565429.921 7 122711397.748 7        42.800                                                    23565430.007 7  99713081.300 7        43.100    23565439.428 7  94888283.472 7        42.500
C33  23543956.993 7 123724488.857 7        45.900    23543988.352 7  92391641.743 7        46.800    23543959.059 7 122599580.398 7        45.500                                                    23543964.933 7  99622230.193 7        44.300    23543984.670 7  94801850.483 7        43.500
C42  22997224.089 8 120851165.249 8        48.000    22997242.297 8  90246038.365 8        49.300    22997225.159 7 119752522.929 7        46.000                                                    22997229.309 7  97308726.631 7        45.700    22997238.522 7  92600272.266 7        45.200
I03  41448351.630 7 162652164.396 7        47.400
G12  22559937.920 6 118553366.519 6        41.400                                                    22559960.143 7  92379504.947 7        43.000
R07  21309548.152 7 114071704.241 7        47.800    21309547.810 7 114071837.242 7        45.900    21309558.812 7  88722602.442 7        43.700    21309558.166 7  88722456.436 7        42.400
R22  21894847.139 7 116876126.089 7        44.800    21894847.363 7 116876148.096 7        44.100    21894863.973 7  90903715.473 7        42.500    21894864.416 7  90903706.476 7        42.800
R10  20857152.668 7 111180398.249 7        43.500    20857150.858 7 111180395.262 7        42.600
G25  21946519.604 7 115329528.647 7        43.100                                                    21946546.153 7  89867423.065 7        43.200    21946545.168 7  86122970.801 7        47.600
G24  22615207.475 6 118843622.494 6        40.400                                                    22615227.053 7  92605343.217 7        43.100    22615224.910 7  88746792.143 7        47.600
E26  24907449.389 7 130889500.453 7        47.200    24907460.621 7  97742182.567 7        45.300    24907456.772 7 100291961.154 7        47.400    24907460.342 8  99017078.157 8        49.400    24907448.763 8 106241449.409 8        50.000
E07  24554494.227 7 129034716.442 7        46.900    24554505.288 7  96357124.619 7        46.900    24554501.304 7  98870774.900 7        46.800    24554505.195 8  97613957.055 8        49.600    24554491.225 8 104735944.136 8        50.200
E13  24869997.306 7 130692571.916 7        45.300    24870017.674 7  97595097.101 7        46.800    24870013.110 7 100141049.606 7        47.200    24870017.179 8  98868080.157 8        49.800    24869999.956 8 106081587.234 8        48.800
E02  26873345.036 6 141220427.594 6        41.900    26873365.977 7 105456912.617 7        44.400    26873361.275 7 108207940.560 7        45.700    26873365.721 8 106832435.896 8        48.000    26873351.102 7 114626975.294 7        46.000
E30  25511724.722 7 134065080.968 7        46.200    25511746.140 7 100113663.974 7        45.700    25511741.729 7 102725298.770 7        47.600    25511745.820 8 101419386.169 8        49.900    25511728.494 8 108819078.619 8        48.500
E08  25972749.136 7 136487634.706 7        43.200    25972763.012 7 101922591.170 7        45.300    25972759.011 7 104581429.701 7        46.600    25972763.297 8 103252018.742 8        49.600    25972749.527 8 110785377.662 8        48.400
> 2024 10 17  4  4  0.0000000  0 42       0.000000000000
C59                                                                                                  36924727.172 7 192276674.604 7        42.100                                                    36924711.951 7 156240454.841 7        45.000    36924720.432 7 148680456.507 7        43.400
C60                                                                                                  37413637.775 6 194822547.110 6        41.300                                                    37413619.301 7 158309190.236 7        44.300    37413629.649 7 150649101.174 7        43.200
C26  24269755.986 6 127538322.967 6        41.300    24269766.564 7  95239694.563 7        46.200    24269758.059 7 126378936.855 7        42.300                                                    24269755.229 7 102693206.626 7        43.900    24269763.079 7  97724188.797 7        42.000
C24  21534266.139 8 113163356.244 8        48.200    21534269.946 8  84505131.044 8        48.900    21534268.278 8 112134602.844 8        48.400                                                    21534260.480 7  91118533.155 7        45.900    21534267.385 7  86709594.327 7        47.300
C39  36154454.644 8 189992912.638 8        49.100    36154456.668 8 141877810.520 8        48.800    36154456.313 7 188265707.259 7        47.400                                                    36154446.414 7 152981310.266 7        46.000    36154452.893 7 145578963.267 7        43.300
C38  35880954.004 7 188555683.555 7        47.600    35880960.315 8 140804521.304 8        48.900    35880955.356 7 186841497.165 7        46.500                                                    35880949.132 7 151824024.342 7        45.600    35880956.967 7 144477674.027 7        45.300
C16                                                                                                  36219088.402 8 188602267.860 8        48.000    36219090.114 7 145839232.049 7        44.700    36219080.931 7 153254752.028 7        42.600
C14                                                                                                  22591757.175 7 117641185.941 7        45.600    22591756.027 7  90967683.238 7        47.500    22591747.750 7  95593185.152 7        45.800
C13                                                                                                  35940091.905 7 187149460.208 7        47.000    35940094.554 7 144715830.150 7        43.200    35940086.300 7 152074230.440 7        43.900
C06                                                                                                  36225529.386 7 188635807.347 7        45.100    36225526.956 7 145865156.430 7        46.200    36225518.859 7 153282054.761 7        42.700
C05                                                                                                  39225377.937 5 204257031.58915        33.100    39225385.499 6 157944361.65816        38.000    39225377.121 5 165975399.44615        35.600
C04                                                                                                  38460928.283 6 200276027.328 6        36.900    38460936.204 7 154866132.120 7        42.300    38460927.803 6 162740653.465 6        41.100
C03                                                                                                  36059011.462 6 187768677.845 6        40.900    36059011.233 7 145194623.108 7        43.900    36059004.883 7 152577381.519 7        43.400
C02                                                                                                  36895246.530 6 192123157.746 6        37.000    36895246.390 7 148561794.935 7        43.700    36895241.606 6 156115771.338 6        41.300
C01                                                                                                  37331931.911 6 194397082.704 6        39.400    37331937.576 7 150320144.816 7        44.600    37331930.315 6 157963523.222 6        41.100
R16  22407301.291 7 119695742.649 7        46.500    22407301.842 7 119695737.663 7        43.100    22407318.931 7  93096713.524 7        43.000    22407319.162 6  93096692.506 6        39.800
R06  21405352.343 5 114222968.429 5        33.500    21405350.078 5 114223004.453 5        33.300
I10  36500422.907 7 143235412.327 7        47.600
G28  22893104.820 6 120304122.648 6        41.200    22893103.371 7 120304129.646 7        43.200    22893127.876 7  93743564.042 7        45.700    22893131.349 7  89837617.696 7        46.200
J02  37104850.713 6 194987307.784 6        40.800    37104849.545 7 194987349.804 7        45.600    37104846.594 6 194987359.093 6        41.200    37104877.044 7 151938255.073 7        46.000    37104878.550 7 145607490.123 7        47.600
G18  22791809.192 6 119771570.152 6        40.100    22791807.003 7 119771473.133 7        43.300    22791832.534 7  93328407.283 7        44.600    22791835.297 7  89439732.463 7        45.100
G23  20153120.205 8 105905318.041 8        48.000    20153118.776 8 105905553.044 8        49.100    20153132.968 8  82523834.748 8        50.700    20153133.905 8  79085353.249 8        52.700
J03  36221957.941 6 190347539.634 6        39.500    36221957.100 6 190347585.629 6        41.900    36221953.607 6 190347612.355 6        39.500    36221983.577 7 148322825.153 7        43.800    36221984.878 7 142142697.772 7        46.600
J07  36502216.653 6 191820358.044 6        40.900    36502215.139 7 191820409.043 7        42.900    36502209.786 7 191820366.793 7        47.500    36502234.023 8 149470491.662 8        49.000    36502233.375 8 143242541.518 8        49.500
J04  38638674.897 7 203047538.850 7        43.100    38638673.696 7 203047654.844 7        47.200    38638671.264 7 203047620.220 7        46.400    38638689.572 8 158218995.876 8        48.000    38638688.118 8 151626526.710 8        49.200
G10  21729516.742 7 114189372.943 7        47.400                                                    21729531.308 7  88978798.911 7        46.200    21729526.163 7  85271348.785 7        47.000
C25  23548937.260 7 123750525.223 7        43.300    23548953.354 7  92411166.373 7        44.600    23548939.950 7 122625528.840 7        42.500                                                    23548939.582 7  99643305.906 7        42.800    23548949.101 7  94821884.355 7        42.500
C33  23534759.086 7 123676155.418 7        45.700    23534790.562 7  92355548.618 7        46.300    23534761.096 7 122551686.390 7        45.300                                                    23534767.679 7  99583312.378 7        44.800    23534787.007 7  94764815.809 7        43.400
C42  22998478.263 7 120857758.028 7        47.100    22998497.081 8  90250961.332 8        49.100    22998479.961 7 119759055.748 7        45.800                                                    22998483.948 7  97314034.922 7        45.300    22998493.291 7  92605323.662 7        44.800
I03  41438194.860 7 162612307.817 7        47.100
G12  22555185.007 7 118528388.765 7        43.500                                                    22555207.037 7  92360041.837 7        43.800
R07  21302013.488 8 114031370.055 8        48.000    21302013.054 7 114031503.064 7        46.100    21302024.622 7  88691231.394 7        44.300    21302023.554 7  88691085.388 7        44.000
R22  21904207.172 7 116926090.874 7        44.700    21904207.141 7 116926112.893 7        43.700    21904224.221 7  90942576.565 7        43.900    21904224.822 7  90942567.546 7        44.100
R10  20837327.132 7 111074721.317 7        43.900    20837325.743 7 111074718.323 7        42.400
G25  21931669.025 7 115251490.503 7        43.000                                                    21931695.635 7  89806614.309 7        44.400    21931694.984 7  86064695.767 7        47.800
G24  22633564.117 6 118940085.487 6        41.100                                                    22633583.892 7  92680508.939 7        42.300    22633581.262 7  88818825.921 7        46.700
E26  24907203.759 7 130888206.782 7        47.400    24907214.670 7  97741216.298 7        45.100    24907210.945 7 100290969.703 7        47.500    24907214.411 8  99016099.301 8        49.100    24907202.832 8 106240399.205 8        49.800
E07  24554457.409 7 129034521.730 7        47.100    24554468.191 7  96356979.195 7        46.600    24554464.499 7  98870625.664 7        47.700    24554468.073 8  97613809.730 8        50.000    24554454.242 8 104735786.054 8        50.300
E13  24883422.865 7 130763123.622 7        45.700    24883443.484 7  97647781.393 7        46.100    24883438.948 7 100195108.290 7        47.300    24883442.937 8  98921451.646 8        49.600    24883425.519 8 106138852.914 8        48.300
E02  26876733.593 6 141238231.417 6        41.400    26876754.569 7 105470207.666 7        45.700    26876748.743 7 108221582.438 7        44.500    26876753.686 8 106845904.349 8        48.400    26876738.371 7 114641426.422 7        45.400
E30  25502900.757 7 134018709.774 7        46.400    25502921.898 7 100079036.275 7        46.100    25502917.788 7 102689767.726 7        47.700    25502921.506 8 101384306.796 8        49.500    25502904.287 8 108781439.760 8        48.200
E08  25978565.453 7 136518196.416 7        43.600    25978578.983 7 101945412.970 7        45.300    25978575.061 7 104604846.888 7        45.900    25978579.199 8 103275138.224 8        48.800    25978565.693 8 110810184.068 8        48.700
> 2024 10 17  4  4 30.0000000  0 42       0.000000000000
C59                                                                                                  36924879.513 7 192277467.397 7        42.000                                                    36924864.126 7 156241098.942 7        44.500    36924872.888 7 148681069.410 7        44.000
C60                                                                                                  37413759.185 6 194823179.688 6        40.900                                                    37413741.112 7 158309704.168 7        43.800    37413751.269 7 150649590.196 7        43.600
C26  24283333.915 6 127609673.128 6        41.800    24283344.309 7  95292975.262 7        46.700    24283336.020 7 126449638.380 7        42.900                                                    24283332.763 7 102750657.216 7        43.400    24283340.712 7  97778859.480 7        42.500
C24  21532296.316 8 113153001.304 8        48.900    21532299.629 8  84497398.454 8        49.300    21532297.774 8 112124342.038 8        48.100                                                    21532290.043 7  91110195.425 7        45.800    21532296.772 7  86701660.022 7        47.100
C39  36156843.190 8 190005463.999 8        48.900    36156845.152 8 141887183.197 8        48.900    36156844.741 7 188278144.508 7        46.600                                                    36156834.965 7 152991416.481 7        45.600    36156841.375 7 145588580.443 7        43.600
C38  35881173.906 7 188556837.835 7        47.600    35881180.201 8 140805383.109 8        49.400    35881175.340 7 186842640.930 7        46.400                                                    35881168.937 7 151824953.649 7        46.300    35881176.596 7 144478558.319 7        45.200
C16                                                                                                  36220971.042 7 188612070.445 7        47.600    36220972.818 7 145846811.946 7        44.000    36220963.579 7 153262717.367 7        42.200
C14                                                                                                  22587444.363 7 117618728.000 7        45.900    22587443.268 8  90950317.264 8        48.100    22587434.902 7  95574936.182 7        45.700
C13                                                                                                  35936766.859 7 187132144.116 7        47.700    35936769.244 7 144702440.158 7        43.300    35936760.971 7 152060159.620 7        43.700
C06                                                                                                  36226187.946 7 188639237.292 7        45.100    36226185.740 7 145867808.608 7        45.000    36226177.594 7 153284841.819 7        42.600
C05                                                                                                  39225284.900 5 204256546.95815        32.100    39225292.450 6 157943986.77016        38.600    39225284.231 5 165975005.53915        35.600
C04                                                                                                  38461169.685 6 200277283.515 6        36.200    38461177.696 7 154867103.283 7        43.200    38461169.229 6 162741674.058 6        40.000
C03                                                                                                  36059160.006 6 187769450.908 6        40.600    36059159.597 7 145195220.759 7        44.100    36059153.596 7 152578009.616 7        42.400
C02                                                                                                  36895275.161 6 192123305.899 6        36.700    36895275.290 7 148561909.385 7        43.900    36895270.038 6 156115891.644 6        40.800
C01                                                                                                  37332084.119 6 194397874.194 6        39.500    37332089.874 7 150320756.705 7        44.500    37332082.481 6 157964166.258 6        40.500
R16  22425511.499 7 119793012.593 7        43.500    22425511.534 7 119793007.564 7        43.500    22425527.336 6  93172367.705 6        41.600    22425528.242 6  93172346.703 6        39.200
R06  21406983.382 5 114231674.925 5        34.500    21406982.243 5 114231710.911 5        33.800
I10  36500097.458 7 143234134.186 7        47.600
G28  22878241.847 6 120226019.129 6        41.800    22878240.830 7 120226026.142 7        43.400    22878265.458 7  93682704.318 7        45.900    22878268.354 7  89779293.859 7        46.300
J02  37104663.738 6 194986326.250 6        41.800    37104662.889 7 194986368.263 7        44.900    37104659.821 6 194986377.551 6        41.300    37104690.028 7 151937490.298 7        45.600    37104691.615 7 145606757.224 7        47.400
G18  22810011.198 6 119867222.792 6        39.600    22810009.139 7 119867125.796 7        42.600    22810034.590 7  93402941.659 7        44.500    22810037.599 7  89511161.195 7        45.200
G23  20151430.096 8 105896434.739 8        48.500    20151428.502 8 105896669.734 8        49.100    20151442.649 8  82516912.534 8        50.500    20151443.563 8  79078719.433 8        52.500
J03  36224404.160 6 190360392.139 6        40.600    36224402.570 7 190360438.143 7        42.600    36224399.116 6 190360464.864 6        39.000    36224429.499 7 148332840.092 7        44.800    36224430.680 7 142152295.409 7        47.100
J07  36502217.147 6 191820360.190 6        39.700    36502215.664 7 191820411.188 7        43.000    36502210.389 7 191820368.933 7        47.100    36502234.588 8 149470493.210 8        49.600    36502233.661 8 143242542.981 8        49.300
J04  38633633.875 7 203021047.281 7        43.700    38633632.573 7 203021163.275 7        47.200    38633630.259 7 203021128.658 7        46.400    38633648.497 8 158198353.003 8        48.100    38633646.935 8 151606743.932 8        49.500
G10  21714684.647 7 114111431.400 7        47.800                                                    21714699.575 7  88918065.252 7        45.400    21714694.551 7  85213145.709 7        47.200
C25  23532489.587 7 123664091.626 7        43.900    23532505.033 7  92346622.018 7        43.900    23532491.809 7 122539881.005 7        43.200                                                    23532491.949 7  99573710.158 7        42.700    23532501.245 7  94755656.189 7        42.400
C33  23525562.739 7 123627826.725 7        46.100    23525594.071 7  92319459.031 7        47.000    23525564.714 7 122503797.032 7        44.800                                                    23525571.020 7  99544398.370 7        45.000    23525590.207 7  94727784.734 7        43.400
C42  22999763.643 7 120864509.874 7        47.000    22999782.126 8  90256003.084 8        49.200    22999765.104 7 119765746.200 7        46.200                                                    22999768.906 7  97319471.339 7        45.200    22999778.463 7  92610496.976 7        45.500
I03  41428039.498 7 162572455.933 7        47.300
G12  22550522.568 7 118503887.767 7        43.600                                                    22550544.234 7  92340950.262 7        43.700
R07  21294472.645 7 113991001.197 7        47.100    21294471.495 7 113991134.221 7        45.500    21294482.538 7  88659833.401 7        44.400    21294482.523 7  88659687.389 7        43.100
R22  21913663.778 7 116976570.461 7        43.900    21913663.838 7 116976592.465 7        44.300    21913681.834 7  90981838.010 7        43.500    21913681.789 7  90981828.999 7        44.700
R10  20817584.346 7 110969482.861 7        43.700    20817582.806 7 110969479.860 7        42.100
G25  21916869.914 7 115173718.229 7        42.200                                                    21916895.710 7  89746012.723 7        43.800    21916895.432 8  86006619.268 8        49.200
G24  22651946.469 6 119036683.801 6        41.600                                                    22651965.799 7  92755780.130 7        42.800    22651963.107 7  88890960.753 7        46.800
E26  24907037.096 7 130887332.565 7        47.000    24907048.635 7  97740563.299 7        46.300    24907044.777 7 100290299.703 7        47.400    24907048.277 8  99015437.797 8        49.800    24907036.507 8 106239689.486 8        49.200
E07  24554415.678 7 129034302.842 7        46.900    24554426.296 7  96356815.709 7        46.900    24554422.771 7  98870457.925 7        47.600    24554426.522 8  97613644.113 8        50.200    24554413.278 8 104735608.359 8        50.900
E13  24896889.580 7 130833889.631 7        45.600    24896910.223 7  97700625.715 7        46.900    24896905.624 7 100249331.220 7        47.000    24896909.620 8  98974985.270 8        49.700    24896892.442 8 106196292.579 8        48.900
E02  26880191.895 6 141256408.858 6        40.600    26880213.812 7 105483781.680 7        45.900    26880207.957 7 108235510.571 7        45.000    26880212.831 8 106859655.430 8        48.300    26880198.122 7 114656180.824 7        45.800
E30  25494124.675 7 133972596.326 7        46.000    25494146.499 7 100044601.043 7        45.800    25494142.618 8 102654434.158 8        48.500    25494146.330 8 101349422.398 8        49.900    25494129.154 8 108744010.096 8        48.400
E08  25984370.470 7 136548700.672 7        43.900    25984384.462 7 101968191.850 7        45.300    25984380.522 7 104628220.023 7        46.500    25984384.176 8 103298214.241 8        49.000    25984370.352 8 110834943.821 8        48.000
> 2024 10 17  4  5  0.0000000  0 42       0.000000000000
C59                                                                                                  36925032.269 7 192278262.752 7        42.000                                                    36925017.035 7 156241745.125 7        44.900    36925025.777 7 148681684.305 7        43.700
C60                                                                                                  37413881.265 6 194823814.945 6        41.000                                                    37413863.160 7 158310220.266 7        43.500    37413873.457 7 150650081.286 7        43.400
C26  24296969.503 7 127681325.505 7        42.600    24296979.422 7  95346481.670 7        46.200    24296970.450 7 126520639.362 7        42.200                                                    24296968.006 7 102808351.169 7        43.000    24296976.162 7  97833761.742 7        42.500
C24  21530417.983 8 113143132.079 8        49.000    21530421.552 8  84490028.569 8        48.500    21530419.720 7 112114562.516 7        47.700                                                    21530412.058 7  91102248.757 7        45.900    21530418.718 7  86694097.875 7        47.100
C39  36159243.959 8 190018079.964 8        48.800    36159246.022 8 141896604.114 8        49.100    36159245.551 8 188290645.789 8        48.000                                                    36159235.751 7 153001574.727 7        45.800    36159242.180 7 145598247.146 7        43.500
C38  35881421.208 7 188558137.253 7        47.400    35881427.510 8 140806353.296 8        49.100    35881422.837 7 186843928.534 7        46.600                                                    35881416.358 7 151825999.806 7        45.800    35881424.081 7 144479553.833 7        45.100
C16                                                                                                  36222869.179 7 188621956.047 7        47.700    36222871.004 7 145854456.033 7        43.800    36222861.949 7 153270750.158 7        42.600
C14                                                                                                  22583150.018 7 117596366.096 7        45.600    22583149.103 7  90933025.559 7        47.600    22583140.413 7  95556765.258 7        45.900
C13                                                                                                  35933462.711 7 187114939.363 7        47.300    35933465.658 7 144689136.257 7        42.800    35933457.123 7 152046179.265 7        43.700
C06                                                                                                  36226865.418 7 188642764.009 7        43.900    36226863.084 7 145870535.614 7        46.100    36226854.888 7 153287707.506 7        43.200
C05                                                                                                  39225192.584 5 204256063.72115        33.400    39225199.742 6 157943612.96716        37.200    39225191.460 5 165974612.76315        35.600
C04                                                                                                  38461411.373 6 200278541.031 6        36.400    38461419.498 7 154868075.470 7        42.200    38461410.853 6 162742695.721 6        40.100
C03                                                                                                  36059308.445 6 187770225.291 6        40.700    36059308.814 7 145195819.457 7        43.600    36059302.341 7 152578638.775 7        42.600
C02                                                                                                  36895304.339 6 192123456.822 6        36.900    36895304.307 7 148562025.974 7        43.500    36895299.123 6 156116014.185 6        40.900
C01                                                                                                  37332236.237 6 194398667.291 6        39.600    37332242.262 7 150321369.834 7        44.300    37332235.015 6 157964810.622 6        41.400
R16  22443810.218 7 119890757.603 7        46.600    22443810.758 7 119890752.643 7        44.700    22443825.446 7  93248391.502 7        42.500    22443826.254 6  93248370.483 6        40.000
R06  21408644.188 5 114240532.258 5        34.500    21408642.730 5 114240568.251 5        34.300
I10  36499771.604 8 143232854.208 8        48.100
G28  22863440.500 6 120148239.164 6        41.800    22863439.464 7 120148246.160 7        43.400    22863463.901 7  93622096.754 7        44.900    22863467.181 7  89721211.644 7        46.600
J02  37104483.820 6 194985379.707 6        40.500    37104482.155 7 194985421.705 7        44.700    37104479.152 6 194985431.007 6        40.300    37104510.209 7 151936752.784 7        45.000    37104511.408 7 145606050.450 7        47.600
G18  22828241.866 6 119963024.122 6        40.300    22828239.753 7 119962927.131 7        42.300    22828265.552 7  93477591.902 7        44.500    22828268.308 7  89582700.972 7        45.800
G23  20149830.666 8 105888029.018 8        48.100    20149829.035 8 105888264.025 8        48.900    20149843.457 8  82510362.478 8        50.300    20149843.995 8  79072442.263 8        52.300
J03  36226858.670 6 190373292.974 6        39.900    36226857.434 6 190373338.949 6        41.800    36226854.197 6 190373365.703 6        39.400    36226884.578 7 148342892.655 7        45.400    36226885.629 7 142161929.125 7        46.800
J07  36502217.441 6 191820362.884 6        39.500    36502216.193 7 191820413.886 7        42.800    36502211.082 7 191820371.633 7        47.100    36502235.297 8 149470495.185 8        49.800    36502234.364 8 143242544.848 8        49.100
J04  38628582.835 7 202994503.518 7        43.700    38628581.564 7 202994619.510 7        47.100    38628579.149 7 202994584.896 7        45.300    38628597.335 8 158177669.434 8        48.300    38628595.993 8 151586922.152 8        49.200
G10  21699890.379 7 114033688.145 7        47.400                                                    21699905.903 7  88857486.135 7        46.000    21699900.173 7  85155090.711 7        47.300
C25  23516084.198 7 123577882.856 7        44.300    23516100.107 7  92282245.505 7        44.200    23516086.693 7 122454455.954 7        43.600                                                    23516087.115 7  99504295.444 7        43.900    23516095.975 7  94689600.287 7        42.400
C33  23516367.110 7 123579503.453 7        46.300    23516398.368 7  92283373.485 7        47.000    23516369.030 7 122455913.058 7        45.500                                                    23516375.646 7  99505488.741 7        45.300    23516394.505 7  94690757.831 7        43.200
C42  23001078.982 7 120871421.698 7        47.300    23001097.573 8  90261164.290 8        49.400    23001080.765 7 119772595.199 7        46.200                                                    23001084.499 7  97325036.553 7        45.600    23001094.044 7  92615792.861 7        45.600
I03  41417885.555 7 162532608.453 7        47.100
G12  22545951.193 7 118479865.321 7        44.200                                                    22545973.069 7  92322231.593 7        43.800
R07  21286924.782 7 113950598.945 7        47.500    21286924.146 7 113950731.960 7        46.100    21286935.934 7  88628409.397 7        44.300    21286934.969 7  88628263.399 7        44.000
R22  21923216.534 7 117027560.677 7        44.500    21923216.696 7 117027582.682 7        44.100    21923233.683 7  91021496.640 7        44.200    21923234.438 7  91021487.645 7        45.100
R10  20797924.751 7 110864686.531 7        43.800    20797923.609 7 110864683.530 7        42.800
G25  21902120.957 7 115096214.646 7        42.100                                                    21902147.133 7  89685620.500 7        43.400    21902146.707 8  85948743.422 8        48.900
G24  22670353.707 6 119133414.409 6        40.900                                                    22670373.303 7  92831154.372 7        44.100    22670370.826 7  88963194.387 7        47.100
E26  24906950.679 7 130886877.209 7        47.400    24906962.087 7  97740223.055 7        46.000    24906958.174 7 100289950.609 7        46.800    24906961.813 8  99015093.135 8        49.300    24906950.038 8 106239319.723 8        49.100
E07  24554369.650 7 129034059.072 7        47.500    24554380.253 7  96356633.618 7        46.900    24554376.401 7  98870271.085 7        47.000    24554380.113 8  97613459.649 8        49.600    24554366.956 8 104735410.472 8        51.100
E13  24910396.552 7 130904867.525 7        45.600    24910416.967 7  97753628.285 7        46.400    24910412.931 7 100303716.529 7        47.600    24910416.748 8  99028679.210 8        49.500    24910399.633 8 106253904.204 8        49.400
E02  26883722.297 6 141274959.398 6        40.400    26883743.127 7 105497634.355 7        44.700    26883738.487 7 108249724.600 7        45.700    26883742.712 8 106873688.773 8        48.500    26883728.627 7 114671238.052 7        46.400
E30  25485399.338 7 133926742.072 7        46.100    25485420.631 7 100010359.321 7        45.900    25485416.431 8 102619299.181 8        48.300    25485420.444 8 101314734.065 8        49.900    25485403.390 8 108706790.812 8        48.600
E08  25990164.064 7 136579147.367 7        43.500    25990178.604 7 101990927.775 7        45.700    25990174.935 7 104651549.079 7        45.700    25990178.125 8 103321246.732 8        48.700    25990163.906 7 110859656.873 7        47.900
> 2024 10 17  4  5 30.0000000  0 42       0.000000000000
C59                                                                                                  36925185.623 7 192279060.213 7        42.100                                                    36925170.319 7 156242393.023 7        44.800    36925178.981 7 148682300.816 7        43.800
C60                                                                                                  37414003.967 6 194824452.341 6        41.400                                                    37413985.511 7 158310738.104 7        43.400    37413995.928 7 150650574.046 7        43.300
C26  24310661.643 6 127753277.572 6        41.700    24310671.536 7  95400211.885 7        45.500    24310662.579 6 126591937.342 6        40.400                                                    24310660.008 7 102866286.446 7        43.600    24310668.440 7  97888893.645 7        42.700
C24  21528632.135 8 113133748.287 8        48.500    21528636.003 8  84483021.168 8        49.000    21528634.093 8 112105264.046 8        48.700                                                    21528626.349 7  91094692.972 7        46.000    21528633.109 7  86686907.683 7        47.100
C39  36161656.908 8 190030759.479 8        49.000    36161659.059 8 141906072.501 8        49.000    36161658.556 8 188303210.045 8        48.100                                                    36161648.680 7 153011784.154 7        45.400    36161655.231 7 145607962.556 7        43.500
C38  35881695.828 7 188559581.622 7        47.400    35881702.715 8 140807431.728 8        49.400    35881697.683 7 186845359.767 7        46.000                                                    35881691.183 7 151827162.682 7        45.700    35881699.189 7 144480660.415 7        45.300
C16                                                                                                  36224783.527 8 188631923.665 8        48.100    36224785.220 7 145862163.537 7        43.900    36224776.116 6 153278849.591 6        41.700
C14                                                                                                  22578874.273 7 117574101.207 7        45.600    22578873.394 7  90915808.861 7        46.900    22578864.933 7  95538673.146 7        45.400
C13                                                                                                  35930180.277 7 187097846.092 7        47.700    35930182.944 7 144675918.569 7        43.700    35930174.713 7 152032289.522 7        44.000
C06                                                                                                  36227561.009 7 188646386.620 7        44.900    36227558.710 7 145873336.769 7        45.700    36227550.823 7 153290651.111 7        42.800
C05                                                                                                  39225099.600 5 204255581.35715        32.400    39225107.343 6 157943239.81716        37.600    39225099.001 6 165974220.67916        36.000
C04                                                                                                  38461653.327 6 200279799.443 6        36.200    38461661.160 7 154869048.357 7        42.700    38461652.778 6 162743718.130 6        40.800
C03                                                                                                  36059457.571 6 187771000.444 6        40.700    36059457.568 7 145196418.741 7        43.900    36059451.274 6 152579268.562 6        41.800
C02                                                                                                  36895333.749 6 192123609.968 6        36.900    36895333.793 7 148562144.292 7        43.900    36895328.630 6 156116138.544 6        41.100
C01                                                                                                  37332388.973 6 194399461.447 6        39.500    37332394.961 7 150321983.782 7        44.900    37332387.674 6 157965455.813 6        41.400
R16  22462196.237 7 119988973.836 7        46.200    22462196.847 7 119988968.830 7        44.300    22462211.049 6  93324781.704 6        39.600    22462212.909 6  93324760.672 6        40.700
R06  21410331.935 5 114249541.945 5        34.900    21410332.038 5 114249577.971 5        34.800
I10  36499444.807 7 143231571.967 7        47.700
G28  22848701.839 6 120070783.406 6        41.600    22848699.791 7 120070790.419 7        43.000    22848724.480 7  93561741.830 7        44.600    22848727.294 7  89663371.551 7        46.500
J02  37104310.126 7 194984467.884 7        42.200    37104308.884 7 194984509.882 7        44.900    37104305.584 6 194984519.185 6        41.400    37104336.577 7 151936042.304 7        45.800    37104338.003 8 145605369.602 8        48.000
G18  22846499.371 6 120058970.422 6        40.500    22846497.971 7 120058873.438 7        42.000    22846523.357 7  93552355.105 7        45.100    22846526.707 7  89654349.013 7        46.300
G23  20148322.609 7 105880101.948 7        47.200    20148320.547 8 105880336.952 8        48.800    20148335.272 8  82504185.403 8        50.300    20148335.875 8  79066522.509 8        52.200
J03  36229322.572 6 190386241.154 6        39.400    36229321.402 6 190386287.147 6        41.600    36229318.152 6 190386313.875 6        38.900    36229348.639 7 148352982.158 7        45.800    36229349.547 7 142171598.224 7        46.700
J07  36502218.078 6 191820365.617 6        38.800    36502216.637 7 191820416.627 7        42.800    36502211.938 7 191820374.363 7        46.800    36502236.165 8 149470497.206 8        49.200    36502235.027 8 143242546.746 8        49.500
J04  38623521.385 7 202967907.307 7        43.900    38623520.570 7 202968023.313 7        47.300    38623518.330 7 202967988.677 7        45.400    38623536.335 8 158156945.004 8        48.400    38623535.055 8 151567061.210 8        48.800
G10  21685134.428 7 113956145.471 7        47.400                                                    21685149.239 7  88797063.261 7        45.500    21685144.081 7  85097185.465 7        46.900
C25  23499722.397 7 123491900.438 7        44.900    23499738.267 7  92218038.038 7        44.600    23499724.999 7 122369255.184 7        44.500                                                    23499724.919 7  99435062.992 7        43.700    23499734.232 7  94623717.826 7        42.300
C33  23507172.850 7 123531186.183 7        46.800    23507203.707 7  92247292.425 7        46.800    23507174.516 7 122408035.015 7        45.400                                                    23507181.185 7  99466583.935 7        45.500    23507199.976 7  94653735.523 7        42.800
C42  23002425.101 7 120878494.244 7        47.200    23002443.692 8  90266445.526 8        49.100    23002426.554 7 119779603.437 7        46.000                                                    23002430.390 7  97330731.165 7        45.600    23002440.363 7  92621211.885 7        45.900
I03  41407732.268 7 162492765.018 7        47.800
G12  22541471.441 7 118456322.710 7        44.500                                                    22541492.694 7  92303886.809 7        43.500
R07  21279371.469 7 113910163.586 7        47.800    21279370.372 7 113910296.601 7        46.300    21279382.166 7  88596959.669 7        45.600    21279381.163 7  88596813.672 7        43.600
R22  21932863.744 7 117079057.510 7        44.800    21932863.758 7 117079079.524 7        44.000    21932881.544 7  91061549.295 7        44.900    21932882.286 7  91061540.306 7        45.400
R10  20778348.596 7 110760336.653 7        43.000    20778346.934 7 110760333.667 7        42.100
G25  21887423.435 7 115018982.544 7        43.600                                                    21887450.580 7  89625439.775 7        43.600    21887450.071 8  85891070.295 8        48.500
G24  22688786.172 6 119230274.217 6        39.900                                                    22688805.360 7  92906629.287 7        42.300    22688803.219 7  89035524.481 7        47.200
E26  24906943.611 7 130886839.900 7        47.600    24906955.197 7  97740194.973 7        45.800    24906951.201 7 100289921.810 7        47.000    24906954.831 8  99015064.694 8        49.100    24906943.457 8 106239289.287 8        50.000
E07  24554318.179 7 129033789.371 7        47.100    24554329.070 7  96356432.182 7        46.600    24554325.155 7  98870064.393 7        47.100    24554328.812 8  97613255.582 8        49.700    24554315.430 8 104735191.523 8        50.800
E13  24923943.552 7 130976054.824 7        45.300    24923963.636 7  97806787.218 7        46.200    24923959.534 7 100358262.238 7        47.500    24923963.426 8  99082531.528 8        50.100    24923946.320 8 106311685.799 8        49.000
E02  26887322.680 6 141293882.536 6        40.400    26887344.433 7 105511765.274 7        44.700    26887339.211 7 108264224.103 7        45.100    26887343.293 8 106888003.985 8        48.200    26887329.536 7 114686597.720 7        46.400
E30  25476722.612 7 133881148.240 7        46.000    25476744.474 7  99976312.127 7        46.500    25476740.209 8 102584363.759 8        48.300    25476744.137 8 101280242.740 8        50.200    25476727.274 8 108669782.900 8        48.900
E08  25995947.752 7 136609536.377 7        43.900    25995961.741 7 102013620.606 7        45.900    25995957.382 7 104674833.918 7        46.500    25995961.146 8 103344235.560 8        49.100    25995946.532 7 110884323.082 7        47.300
> 2024 10 17  4  6  0.0000000  0 42       0.000000000000
C59                                                                                                  36925339.163 7 192279859.571 7        42.200                                                    36925323.870 7 156243042.452 7        44.800    36925332.681 7 148682918.793 7        43.900
C60                                                                                                  37414126.659 6 194825091.758 6        41.400                                                    37414108.561 7 158311257.579 7        43.300    37414118.877 7 150651068.357 7        43.300
C26  24324410.576 7 127825527.222 7        42.100    24324420.323 7  95454164.311 7        45.100    24324411.856 6 126663530.141 6        41.500                                                    24324408.952 7 102924461.303 7        43.400    24324417.264 7  97944253.517 7        42.400
C24  21526938.978 8 113124849.903 8        48.700    21526942.766 8  84476376.266 8        49.500    21526940.804 7 112096446.564 7        47.800                                                    21526933.098 7  91087528.041 7        45.600    21526939.771 7  86680089.440 7        47.300
C39  36164081.781 8 190043501.861 8        48.800    36164083.761 8 141915587.826 8        48.800    36164083.356 7 188315836.576 7        47.500                                                    36164073.581 7 153022044.176 7        45.800    36164079.955 7 145617726.104 7        43.600
C38  35881998.645 7 188561171.130 7        47.300    35882005.292 8 140808618.521 8        49.500    35882000.052 7 186846934.814 7        46.100                                                    35881993.821 7 151828442.416 7        46.100    35882001.795 7 144481878.194 7        45.400
C16                                                                                                  36226713.517 7 188641972.613 7        47.900    36226715.152 7 145869933.943 7        44.000    36226705.904 7 153287015.124 7        42.400
C14                                                                                                  22574617.141 7 117551934.428 7        45.400    22574616.826 7  90898668.042 7        47.500    22574607.975 7  95520660.759 7        45.500
C13                                                                                                  35926919.162 7 187080864.695 7        47.500    35926922.146 7 144662787.397 7        43.700    35926913.675 7 152018490.672 7        43.800
C06                                                                                                  36228275.089 7 188650104.493 7        44.600    36228273.049 7 145876211.573 7        45.700    36228264.846 7 153293672.111 7        43.100
C05                                                                                                  39225008.007 5 204255099.73315        32.600    39225014.914 6 157942867.26416        37.700    39225006.727 6 165973829.21116        36.100
C04                                                                                                  38461895.335 6 200281058.503 6        36.400    38461903.154 7 154870021.728 7        42.500    38461894.816 6 162744741.049 6        40.900
C03                                                                                                  36059606.535 6 187771776.223 6        40.900    36059606.614 7 145197018.510 7        44.300    36059600.304 7 152579898.857 7        42.500
C02                                                                                                  36895363.564 6 192123765.386 6        37.200    36895363.676 7 148562264.367 7        44.700    36895358.682 6 156116264.745 6        40.900
C01                                                                                                  37332541.711 6 194400256.470 6        39.800    37332547.777 7 150322598.414 7        45.000    37332540.498 6 157966101.698 6        41.300
R16  22480670.582 7 120087656.923 7        43.500    22480670.524 7 120087651.983 7        43.700    22480685.230 6  93401535.089 6        39.200    22480686.861 6  93401514.048 6        40.800
R06  21412050.559 5 114258705.682 5        35.600    21412049.445 5 114258741.673 5        34.600
I10  36499117.505 8 143230287.381 8        48.000
G28  22834024.424 6 119993652.786 6        41.400    22834022.397 7 119993659.785 7        42.600    22834046.801 7  93501640.246 7        44.700    22834050.385 7  89605774.215 7        46.700
J02  37104143.545 6 194983590.936 6        41.200    37104142.022 7 194983632.935 7        44.700    37104138.683 6 194983642.237 6        40.400    37104169.506 7 151935359.008 7        45.600    37104170.976 8 145604714.797 8        48.200
G18  22864784.722 6 120155058.332 6        39.000    22864782.889 6 120154961.331 6        41.700    22864808.494 7  93627228.629 7        45.100    22864811.672 7  89726102.773 7        46.700
G23  20146904.931 7 105872654.955 7        47.800    20146903.273 8 105872889.948 8        48.500    20146918.002 8  82498382.364 8        49.900    20146918.896 8  79060961.245 8        52.500
J03  36231796.114 6 190399236.260 6        39.500    36231794.531 6 190399282.254 6        41.300    36231790.485 6 190399308.985 6        39.000    36231821.489 7 148363108.223 7        45.700    36231822.559 7 142181302.365 7        46.400
J07  36502218.261 6 191820368.302 6        39.400    36502217.607 7 191820419.303 7        43.200    36502212.277 7 191820377.050 7        46.100    36502236.636 8 149470499.165 8        49.700    36502235.695 8 143242548.599 8        49.600
J04  38618450.870 7 202941258.697 7        43.000    38618449.560 7 202941374.687 7        47.600    38618447.120 7 202941340.067 7        47.000    38618465.343 8 158136179.725 8        48.100    38618464.137 8 151547161.134 8        48.900
G10  21670417.355 7 113878805.785 7        47.400                                                    21670432.358 7  88736798.621 7        45.600    21670426.962 7  85039431.839 7        46.700
C25  23483403.855 7 123406146.212 7        44.400    23483419.708 7  92154000.969 7        46.300    23483406.511 7 122284280.532 7        44.900                                                    23483406.307 7  99366014.266 7        43.900    23483415.491 7  94558010.214 7        42.600
C33  23497979.732 7 123482875.815 7        46.800    23498010.683 7  92211216.533 7        47.200    23497981.496 7 122360163.853 7        44.700                                                    23497988.104 7  99427684.705 7        45.700    23498006.885 7  94616718.505 7        43.200
C42  23003802.129 7 120885728.565 7        47.500    23003820.407 8  90271847.559 8        48.800    23003802.919 7 119786771.996 7        45.200                                                    23003807.174 7  97336556.027 7        45.800    23003817.284 7  92626754.853 7        46.000
I03  41397580.519 7 162452925.506 7        47.600
G12  22537082.958 7 118433261.855 7        44.300                                                    22537103.955 7  92285917.415 7        44.300
R07  21271811.717 7 113869696.728 7        47.900    21271811.174 7 113869829.743 7        46.800    21271821.726 7  88565485.410 7        44.700    21271821.608 7  88565339.425 7        43.400
R22  21942605.821 7 117131057.126 7        44.400    21942605.248 7 117131079.132 7        43.800    21942623.607 7  91101992.992 7        45.500    21942623.923 7  91101983.988 7        45.100
R10  20758856.712 7 110656436.815 7        43.200    20758855.782 6 110656433.813 6        41.600
G25  21872778.967 7 114942025.021 7        43.300                                                    21872805.323 7  89565473.028 7        42.300    21872805.255 8  85833602.182 8        49.100
G24  22707241.501 6 119327260.540 6        40.100                                                    22707260.817 7  92982202.864 7        42.000    22707259.617 7  89107949.051 7        47.500
E26  24907016.235 7 130887220.188 7        46.200    24907027.561 7  97740478.732 7        45.900    24907023.860 7 100290212.994 7        47.300    24907027.369 8  99015352.161 8        49.600    24907015.915 8 106239597.818 8        50.300
E07  24554262.042 7 129033493.301 7        47.600    24554272.594 7  96356211.019 7        46.900    24554268.855 7  98869837.475 7        47.200    24554272.526 8  97613031.541 8        49.800    24554258.987 8 104734951.169 8        50.900
E13  24937529.813 7 131047449.260 7        45.500    24937550.013 7  97860100.842 7        46.600    24937545.374 7 100412966.688 7        46.900    24937549.612 8  99136540.565 8        49.500    24937532.490 8 106369635.540 8        48.800
E02  26890995.188 6 141313177.958 6        40.900    26891016.340 7 105526174.195 7        45.400    26891010.755 7 108279008.928 7        44.500    26891015.306 8 106902600.865 8        48.100    26891000.268 7 114702259.611 7        45.300
E30  25468095.510 7 133835816.491 7        46.300    25468117.986 7  99942460.608 7        46.800    25468113.736 8 102549629.154 8        48.500    25468117.658 8 101245949.686 8        50.300    25468101.094 8 108632987.751 8        49.300
E08  26001719.402 7 136639867.871 7        43.700    26001733.606 7 102036270.463 7        46.000    26001729.288 7 104698074.678 7        46.600    26001733.298 8 103367180.872 8        49.500    26001718.951 7 110908942.617 7        47.300
> 2024 10 17  4  6 30.0000000  0 42       0.000000000000
C59                                                                                                  36925493.389 7 192280661.243 7        42.200                                                    36925477.947 7 156243693.774 7        44.200    36925486.734 7 148683538.563 7        43.900
C60                                                                                                  37414250.071 6 194825733.541 6        41.500                                                    37414231.848 7 158311778.981 7        44.200    37414242.265 7 150651564.498 7        43.600
C26  24338215.004 7 127898072.771 7        43.000    24338225.641 7  95508337.719 7        45.700    24338216.623 7 126735416.199 7        42.100                                                    24338214.037 7 102982874.442 7        43.200    24338222.076 7  97999840.186 7        42.000
C24  21525338.214 8 113116437.545 8        48.700    21525342.058 8  84470094.286 8        50.000    21525340.062 7 112088110.673 7        47.400                                                    21525332.057 7  91080754.438 7        45.900    21525338.854 7  86673643.586 7        47.200
C39  36166518.454 8 190056306.913 8        48.800    36166520.498 8 141925149.955 8        49.000    36166520.093 7 188328525.221 7        47.500                                                    36166510.390 7 153032354.682 7        46.100    36166516.830 7 145627537.698 7        43.700
C38  35882328.943 7 188562906.487 7        47.300    35882335.669 8 140809914.255 8        49.700    35882330.938 7 186848654.405 7        46.400                                                    35882324.023 7 151829839.609 7        45.800    35882332.105 7 144483207.741 7        45.300
C16                                                                                                  36228659.106 7 188652102.828 7        47.900    36228660.698 7 145877767.189 7        43.500    36228651.485 6 153295246.686 6        41.600
C14                                                                                                  22570380.261 7 117529867.444 7        46.100    22570378.947 7  90881604.363 7        47.100    22570370.351 7  95502729.456 7        45.300
C13                                                                                                  35923679.824 8 187063996.080 8        48.800    35923682.719 7 144649743.407 7        43.700    35923674.249 7 152004783.467 7        44.200
C06                                                                                                  36229007.301 7 188653917.641 7        45.100    36229005.409 7 145879160.043 7        46.400    36228997.258 7 153296770.523 7        42.800
C05                                                                                                  39224915.668 5 204254619.18415        32.300    39224922.728 6 157942495.53416        38.200    39224914.385 6 165973438.61516        36.100
C04                                                                                                  38462137.733 6 200282318.616 6        36.300    38462145.420 7 154870995.944 7        43.200    38462136.859 6 162745764.847 6        40.700
C03                                                                                                  36059755.559 6 187772553.041 6        40.800    36059755.767 7 145197619.088 7        44.600    36059749.550 7 152580530.004 7        42.600
C02                                                                                                  36895393.922 6 192123923.181 6        37.100    36895394.342 7 148562386.271 7        44.300    36895389.044 6 156116392.883 6        41.300
C01                                                                                                  37332694.855 6 194401052.791 6        39.900    37332700.791 7 150323214.036 7        44.500    37332693.577 6 157966748.668 6        40.900
R16  22499232.086 7 120186803.512 7        44.500    22499230.956 7 120186798.520 7        42.500    22499245.771 6  93478648.929 6        39.200    22499247.286 6  93478627.861 6        40.900
R06  21413796.974 5 114268026.219 5        34.100    21413795.746 5 114268062.230 5        34.300
I10  36498790.032 8 143229000.743 8        48.100
G28  22819408.648 6 119916848.868 6        40.800    22819406.715 7 119916855.868 7        43.000    22819430.945 7  93441793.222 7        44.200    22819434.901 7  89548420.868 7        46.900
J02  37103982.761 6 194982749.497 6        41.500    37103981.487 7 194982791.496 7        44.700    37103978.663 6 194982800.797 6        40.900    37104009.649 7 151934703.394 7        44.800    37104010.681 7 145604086.501 7        47.500
G18  22883096.269 6 120251284.926 6        40.400    22883094.327 7 120251187.929 7        42.600    22883120.215 7  93702210.245 7        44.600    22883123.319 7  89797960.106 7        47.800
G23  20145579.903 7 105865689.878 7        47.400    20145578.044 8 105865924.876 8        48.600    20145592.762 8  82492954.865 8        50.100    20145593.674 8  79055759.870 8        52.300
J03  36234277.705 6 190412278.255 6        39.900    36234276.147 6 190412324.261 6        41.600    36234272.708 6 190412350.980 6        39.000    36234303.392 7 148373270.818 7        45.400    36234304.319 7 142191041.505 7        46.400
J07  36502219.376 6 191820371.245 6        39.200    36502218.198 7 191820422.248 7        43.100    36502212.774 7 191820379.986 7        46.500    36502237.367 8 149470501.328 8        49.900    36502236.279 8 143242550.646 8        49.400
J04  38613370.024 7 202914558.382 7        43.400    38613368.713 7 202914674.372 7        47.700    38613366.368 7 202914639.753 7        46.400    38613384.736 7 158115374.178 7        47.700    38613383.341 8 151527222.447 8        49.500
G10  21655739.148 7 113801672.311 7        47.200                                                    21655753.799 7  88676694.617 7        44.900    21655748.691 7  84981832.161 7        46.400
C25  23467129.126 7 123320622.631 7        43.500    23467144.781 7  92090136.192 7        45.900    23467131.732 7 122199534.464 7        44.500                                                    23467131.468 7  99297151.285 7        43.400    23467140.207 6  94492479.344 6        41.900
C33  23488788.044 7 123434573.908 7        46.500    23488819.038 7  92175146.945 7        47.100    23488789.820 7 122312301.040 7        45.400                                                    23488796.623 7  99388792.277 7        45.500    23488815.365 7  94579707.968 7        43.000
C42  23005209.815 7 120893126.334 7        47.700    23005228.419 8  90277371.644 8        48.900    23005210.844 7 119794102.499 7        45.400                                                    23005214.969 7  97342512.504 7        45.200    23005225.029 7  92632423.071 7        45.800
I03  41387429.178 7 162413090.135 7        47.100
G12  22532786.952 7 118410685.125 7        43.300                                                    22532808.056 7  92268325.275 7        44.200
R07  21264246.195 8 113829199.908 8        49.000    21264246.160 7 113829332.916 7        46.600    21264256.698 7  88533987.854 7        44.700    21264256.446 7  88533841.865 7        43.900
R22  21952441.244 7 117183556.239 7        44.700    21952441.194 7 117183578.243 7        43.900    21952458.463 7  91142825.162 7        43.800    21952459.033 7  91142816.175 7        44.200
R10  20739450.468 7 110552992.153 7        43.900    20739449.616 7 110552989.152 7        42.700
G25  21858187.045 7 114865345.676 7        43.800                                                    21858213.332 7  89505723.055 7        42.700    21858213.409 8  85776341.839 8        49.500
G24  22725721.118 6 119424371.171 6        40.800                                                    22725741.737 6  93057873.225 6        40.900    22725739.603 7  89180466.434 7        46.600
E26  24907168.321 7 130888018.176 7        46.400    24907179.464 7  97741074.434 7        45.900    24907175.812 7 100290824.276 7        47.300    24907179.573 8  99015955.650 8        49.900    24907167.994 8 106240245.406 8        49.900
E07  24554200.572 7 129033170.807 7        47.100    24554211.525 7  96355970.143 7        46.400    24554207.670 7  98869590.325 7        47.000    24554211.179 8  97612787.541 8        50.300    24554197.602 8 104734689.369 8        50.800
E13  24951154.495 7 131119049.171 7        45.100    24951175.465 7  97913567.896 7        47.000    24951170.960 7 100467828.606 7        47.800    24951175.112 8  99190705.051 8        49.800    24951157.824 8 106427752.069 8        49.100
E02  26894737.321 6 141332846.039 6        40.000    26894758.310 7 105540861.372 7        43.700    26894754.054 7 108294079.252 7        45.100    26894758.049 7 106917479.612 7        47.700    26894742.688 7 114718223.952 7        45.500
E30  25459520.799 7 133790748.938 7        46.200    25459541.460 7  99908806.410 7        46.800    25459537.353 8 102515096.999 8        48.700    25459541.456 8 101211856.502 8        50.400    25459524.746 8 108596407.028 8        49.300
E08  26007480.538 7 136670142.520 7        43.400    26007494.788 7 102058877.903 7        45.700    26007490.936 7 104721271.900 7        46.000    26007494.576 8 103390083.201 8        49.300    26007480.262 7 110933516.005 7        47.300
> 2024 10 17  4  7  0.0000000  0 42       0.000000000000
C59                                                                                                  36925647.855 7 192281465.751 7        42.100                                                    36925632.560 7 156244347.395 7        44.700    36925641.340 7 148684160.531 7        44.000
C60                                                                                                  37414373.998 6 194826378.212 6        41.400                                                    37414355.791 7 158312302.733 7        43.900    37414366.093 7 150652062.881 7        43.400
C26  24352076.190 7 127970912.730 7        42.300    24352086.873 7  95562730.974 7        45.500    24352077.550 6 126807593.972 6        40.100                                                    24352075.193 7 103041524.639 7        42.900    24352083.157 6  98055652.415 6        41.400
C24  21523829.880 8 113108511.898 8        49.100    21523834.061 8  84464175.755 8        50.100    21523831.789 7 112080257.065 7        47.500                                                    21523823.968 7  91074372.724 7        46.000    21523830.724 7  86667570.658 7        47.000
C39  36168967.161 8 190069174.705 8        48.700    36168969.384 8 141934758.928 8        49.300    36168968.938 7 188341276.024 7        47.900                                                    36168959.056 7 153042715.691 7        45.900    36168965.618 7 145637397.355 7        43.700
C38  35882687.320 7 188564788.622 7        47.000    35882694.004 8 140811319.582 8        49.400    35882689.181 7 186850519.426 7        46.600                                                    35882682.203 7 151831354.984 7        46.000    35882690.407 7 144484649.752 7        45.300
C16                                                                                                  36230620.052 8 188662314.356 8        48.100    36230621.801 7 145885663.300 7        44.100    36230612.726 7 153303544.314 7        42.100
C14                                                                                                  22566161.884 7 117507902.224 7        46.000    22566160.833 7  90864619.387 7        47.200    22566152.351 7  95484880.858 7        45.800
C13                                                                                                  35920462.436 8 187047241.606 8        48.000    35920465.307 7 144636787.689 7        43.700    35920456.960 7 151991169.006 7        43.600
C06                                                                                                  36229758.205 7 188657826.249 7        44.700    36229756.019 7 145882182.316 7        45.700    36229748.016 7 153299946.501 7        42.400
C05                                                                                                  39224823.643 5 204254140.26815        31.600    39224830.838 6 157942125.06116        37.900    39224822.660 5 165973049.34015        35.500
C04                                                                                                  38462379.851 6 200283580.328 6        36.900    38462388.033 7 154871971.366 7        42.800    38462379.475 6 162746789.916 6        40.400
C03                                                                                                  36059905.369 6 187773331.434 6        40.800    36059905.644 7 145198220.879 7        43.700    36059899.278 7 152581162.428 7        42.500
C02                                                                                                  36895424.958 6 192124084.063 6        36.900    36895425.271 7 148562510.561 7        43.700    36895419.932 6 156116523.516 6        41.000
C01                                                                                                  37332848.253 6 194401850.962 6        39.900    37332854.377 7 150323831.109 7        45.100    37332846.942 6 157967397.174 6        40.500
R16  22517877.850 7 120286410.342 7        43.000    22517877.067 7 120286405.326 7        42.200    22517893.494 7  93556120.707 7        42.000    22517894.424 7  93556099.641 7        42.100
R06  21415573.853 5 114277505.484 5        34.900    21415572.591 5 114277541.483 5        33.200
I10  36498461.939 8 143227712.470 8        48.100
G28  22804855.642 6 119840373.372 6        41.600    22804853.529 7 119840380.373 7        43.500    22804877.832 7  93382202.128 7        43.800    22804882.116 7  89491312.768 7        47.100
J02  37103829.700 6 194981944.375 6        41.300    37103828.265 7 194981986.388 7        45.000    37103825.351 7 194981995.670 7        42.300    37103856.098 7 151934076.071 7        45.000    37103857.511 8 145603485.337 8        48.300
G18  22901433.742 6 120347647.644 6        41.100    22901431.948 7 120347550.644 7        43.500    22901457.592 7  93777297.937 7        45.700    22901460.849 8  89869919.105 8        48.100
G23  20144346.782 7 105859208.838 7        47.600    20144344.953 8 105859443.832 8        48.900    20144359.819 8  82487904.538 8        50.700    20144360.610 8  79050919.927 8        52.700
J03  36236768.609 6 190425367.304 6        38.200    36236766.978 7 190425413.298 7        42.000    36236763.806 6 190425440.022 6        38.600    36236794.217 7 148383470.043 7        45.600    36236795.101 7 142200815.778 7        45.900
J07  36502220.041 6 191820375.029 6        40.300    36502218.654 7 191820426.035 7        43.000    36502213.931 7 191820383.770 7        46.300    36502238.065 8 149470504.153 8        49.500    36502237.219 8 143242553.326 8        49.500
J04  38608279.297 7 202887807.169 7        43.600    38608278.066 7 202887923.165 7        47.600    38608276.087 7 202887888.546 7        47.200    38608294.152 8 158094528.958 8        48.100    38608292.863 8 151507245.764 8        49.100
G10  21641100.880 7 113724748.230 7        47.200                                                    21641115.694 7  88616753.766 7        44.400    21641110.817 7  84924388.865 7        47.100
C25  23450899.056 7 123235332.297 7        44.100    23450914.280 7  92026445.567 7        45.400    23450901.208 7 122115019.531 7        44.500                                                    23450900.894 7  99228476.101 7        43.300    23450909.652 6  94427127.200 6        41.600
C33  23479598.313 7 123386282.077 7        46.400    23479629.285 7  92139084.900 7        47.600    23479600.279 7 122264448.240 7        46.100                                                    23479606.783 7  99349907.979 7        45.100    23479625.523 7  94542705.162 7        43.000
C42  23006648.954 7 120900689.385 7        47.900    23006667.562 8  90283019.149 8        49.100    23006650.442 7 119801596.786 7        45.900                                                    23006654.591 7  97348602.064 7        45.200    23006664.334 7  92638217.927 7        45.800
I03  41377279.416 7 162373259.463 7        47.500
G12  22528582.458 7 118388594.876 7        44.700                                                    22528604.124 7  92251112.218 7        44.400
R07  21256675.937 8 113788674.717 8        48.800    21256675.901 7 113788807.726 7        46.700    21256686.623 7  88502468.246 7        44.500    21256686.018 7  88502322.248 7        44.000
R22  21962368.816 7 117236551.629 7        43.900    21962369.165 7 117236573.633 7        42.600    21962386.824 7  91184043.375 7        44.300    21962387.095 7  91184034.379 7        43.900
R10  20720131.597 7 110450007.288 7        44.700    20720129.762 7 110450004.294 7        43.100
G25  21843649.922 7 114788948.391 7        43.200                                                    21843675.544 7  89446192.862 7        42.800    21843675.381 8  85719292.108 8        49.500
G24  22744224.643 7 119521604.159 7        42.300                                                    22744244.795 7  93133639.000 7        42.200    22744242.404 7  89253075.215 7        46.400
E26  24907399.839 7 130889234.151 7        47.300    24907411.052 7  97741982.281 7        46.000    24907407.329 7 100291755.838 7        47.800    24907411.180 8  99016875.355 8        49.200    24907399.462 8 106241232.253 8        49.100
E07  24554134.383 7 129032822.081 7        47.600    24554145.036 7  96355709.655 7        47.100    24554141.480 7  98869323.048 7        47.300    24554144.884 8  97612523.650 8        49.600    24554131.409 8 104734406.257 8        50.800
E13  24964818.588 7 131190853.069 7        44.800    24964839.778 7  97967187.266 7        47.100    24964835.027 7 100522846.789 7        47.400    24964839.329 8  99245023.826 8        50.300    24964822.354 8 106486034.152 8        49.100
E02  26898551.025 6 141352887.107 6        40.900    26898571.879 7 105555827.127 7        43.900    26898567.636 7 108309435.405 7        46.000    26898571.655 8 106932640.562 8        48.000    26898555.828 7 114734491.045 7        44.600
E30  25450993.453 7 133745947.942 7        45.600    25451016.229 7  99875351.233 7        46.700    25451011.829 8 102480769.062 8        48.500    25451016.082 8 101177964.947 8        50.200    25450999.380 8 108560042.665 8        49.500
E08  26013230.547 7 136700361.277 7        43.300    26013245.476 7 102081443.579 7        45.800    26013241.875 7 104744426.279 7        46.800    26013245.331 8 103412943.231 8        49.100    26013231.351 7 110958044.029 7        47.300
> 2024 10 17  4  7 30.0000000  0 42       0.000000000000
C59                                                                                                  36925803.083 7 192282273.533 7        42.100                                                    36925787.896 7 156245003.682 7        44.900    36925796.628 7 148684785.024 7        43.900
C60                                                                                                  37414498.242 6 194827026.242 6        41.100                                                    37414480.373 7 158312829.215 7        43.600    37414490.744 7 150652563.853 7        43.500
C26  24365992.876 7 128044045.492 7        42.000    24366003.927 7  95617342.858 7        45.800    24365994.512 6 126880061.899 6        40.900                                                    24365992.306 7 103100410.578 7        43.900    24365999.914 6  98111688.990 6        41.100
C24  21522414.552 8 113101073.435 8        49.100    21522418.564 8  84458621.039 8        50.100    21522416.237 7 112072886.238 7        47.100                                                    21522408.543 7  91068383.301 7        45.700    21522415.306 7  86661871.040 7        47.000
C39  36171427.598 8 190082105.008 8        48.500    36171430.026 8 141944414.588 8        49.000    36171429.290 7 188354088.780 7        47.800                                                    36171419.738 7 153053127.046 7        45.700    36171426.184 7 145647304.911 7        43.600
C38  35883073.446 7 188566818.263 7        47.200    35883080.420 8 140812835.040 8        49.300    35883075.397 7 186852530.592 7        47.000                                                    35883068.453 7 151832989.105 7        45.600    35883076.798 7 144486204.769 7        45.300
C16                                                                                                  36232596.556 7 188672607.101 7        47.500    36232598.436 7 145893622.200 7        44.400    36232589.242 6 153311907.932 6        41.700
C14                                                                                                  22561963.798 7 117486040.473 7        45.200    22561962.591 7  90847714.399 7        47.100    22561954.294 7  95467116.319 7        46.000
C13                                                                                                  35917267.155 8 187030602.086 8        48.000    35917270.027 7 144623920.864 7        43.200    35917261.476 7 151977647.965 7        43.900
C06                                                                                                  36230527.008 7 188661830.256 7        45.000    36230525.037 7 145885278.359 7        45.300    36230516.962 7 153303199.995 7        42.600
C05                                                                                                  39224732.045 5 204253663.54115        32.000    39224739.443 6 157941756.29516        37.800    39224731.209 5 165972661.85315        35.400
C04                                                                                                  38462623.014 6 200284844.019 6        36.700    38462630.744 7 154872948.347 7        42.700    38462622.260 6 162747816.624 6        40.400
C03                                                                                                  36060055.385 6 187774111.753 6        40.700    36060055.578 7 145198824.161 7        43.800    36060049.210 7 152581796.408 7        42.600
C02                                                                                                  36895456.540 6 192124248.516 6        36.800    36895456.567 7 148562637.612 7        43.700    36895451.664 6 156116657.057 6        40.500
C01                                                                                                  37333001.941 6 194402651.298 6        39.700    37333008.034 7 150324449.856 7        44.600    37333000.794 6 157968047.379 6        40.500
R16  22536610.910 7 120386473.852 7        42.200    22536609.216 7 120386468.852 7        42.400    22536625.935 6  93633947.714 6        41.600    22536626.457 7  93633926.675 7        42.100
R06  21417380.349 5 114287145.793 5        33.200    21417377.964 5 114287181.841 5        32.700
I10  36498133.236 8 143226422.905 8        48.000
G28  22790365.052 6 119764227.802 6        41.900    22790363.620 7 119764234.810 7        43.000    22790387.776 7  93322868.123 7        44.300    22790391.475 7  89434451.077 7        46.700
J02  37103682.853 7 194981176.223 7        42.100    37103682.171 7 194981218.209 7        44.600    37103678.975 6 194981227.524 6        41.300    37103709.937 7 151933477.534 7        44.500    37103711.032 8 145602911.750 8        48.200
G18  22919796.838 6 120444143.697 6        41.900    22919794.632 7 120444046.710 7        44.400    22919820.100 7  93852489.529 7        45.800    22919823.607 7  89941977.682 7        47.900
G23  20143206.246 7 105853213.680 7        47.900    20143204.459 8 105853448.686 8        49.100    20143218.995 8  82483232.829 8        50.700    20143219.857 8  79046442.818 8        52.100
J03  36239267.987 6 190438503.432 6        38.600    36239266.290 6 190438549.444 6        41.600    36239263.434 6 190438576.150 6        38.500    36239294.426 7 148393705.994 7        46.000    36239294.811 7 142210625.239 7        46.000
J07  36502221.437 6 191820380.025 6        40.200    36502219.885 7 191820431.029 7        43.100    36502214.626 7 191820388.774 7        47.200    36502239.282 8 149470507.920 8        49.700    36502238.281 8 143242556.908 8        49.500
J04  38603179.189 7 202861005.760 7        43.700    38603178.161 7 202861121.756 7        47.600    38603176.002 7 202861087.130 7        45.900    38603193.819 7 158073644.621 7        47.700    38603192.773 8 151487231.580 8        49.100
G10  21626503.100 7 113648036.747 7        47.900                                                    21626518.251 7  88556978.588 7        44.500    21626513.271 7  84867104.314 7        47.300
C25  23434713.691 7 123150277.673 7        44.500    23434728.716 7  91962930.917 7        45.600    23434716.056 7 122030738.100 7        44.300                                                    23434715.552 7  99159990.657 7        43.800    23434724.089 6  94361955.618 6        41.400
C33  23470410.685 7 123338001.876 7        46.200    23470441.742 7  92103031.530 7        46.700    23470412.753 7 122216606.949 7        45.900                                                    23470419.279 7  99311033.039 7        45.400    23470438.088 7  94505711.265 7        43.000
C42  23008119.975 7 120908419.366 7        47.600    23008138.754 8  90288791.290 8        48.800    23008121.478 7 119809256.493 7        45.700                                                    23008125.703 7  97354826.028 7        45.900    23008135.614 7  92644140.684 7        45.900
I03  41367131.191 7 162333433.685 7        47.500
G12  22524472.492 7 118366993.571 7        43.700                                                    22524493.654 7  92234280.115 7        44.900
R07  21249100.766 8 113748123.231 8        48.400    21249099.999 7 113748256.253 7        47.200    21249112.053 7  88470928.197 7        45.000    21249110.785 7  88470782.207 7        44.400
R22  21972390.095 7 117290040.014 7        43.500    21972389.242 7 117290062.028 7        43.000    21972407.653 7  91225645.012 7        43.300    21972407.932 7  91225636.017 7        42.600
R10  20700898.328 7 110347486.679 7        44.500    20700897.502 7 110347483.693 7        43.900
G25  21829165.510 7 114712836.807 7        43.900                                                    21829191.557 7  89386885.243 7        43.200    21829191.460 8  85662455.685 8        48.900
G24  22762750.986 6 119618957.337 6        38.400                                                    22762770.683 6  93209498.358 6        40.900    22762768.164 7  89325773.756 7        45.600
E26  24907710.928 7 130890868.198 7        47.400    24907722.032 7  97743202.296 7        45.700    24907718.392 7 100293007.701 7        47.200    24907722.297 8  99018111.302 8        49.200    24907710.387 8 106242558.422 8        49.100
E07  24554062.923 7 129032447.128 7        47.200    24554073.735 7  96355429.577 7        46.700    24554069.913 7  98869035.666 7        47.100    24554073.592 8  97612239.924 8        50.000    24554060.171 8 104734101.865 8        50.700
E13  24978521.416 7 131262859.243 7        45.600    24978542.366 7  98020957.724 7        45.800    24978537.534 7 100578020.003 7        47.100    24978541.961 8  99299495.657 8        49.800    24978525.039 8 106544480.448 8        48.700
E02  26902435.883 7 141373301.434 7        42.200    26902456.845 7 105571071.614 7        43.600    26902452.341 7 108325077.565 7        45.500    26902456.189 7 106948083.886 7        47.800    26902440.235 7 114751061.127 7        44.100
E30  25442520.952 7 133701415.618 7        45.700    25442542.115 7  99842096.683 7        47.100    25442537.291 8 102446646.996 8        48.000    25442541.727 8 101144276.644 8        50.400    25442524.655 8 108523896.374 8        49.200
E08  26018971.627 7 136730524.860 7        43.100    26018986.118 7 102103968.058 7        46.300    26018981.993 7 104767538.383 7        46.900    26018985.476 8 103435761.517 8        49.300    26018971.641 7 110982527.255 7        47.500
> 2024 10 17  4  8  0.0000000  0 42       0.000000000000
C59                                                                                                  36925958.757 7 192283083.069 7        42.100                                                    36925943.397 7 156245661.393 7        44.100    36925952.155 7 148685410.891 7        43.800
C60                                                                                                  37414623.327 6 194827676.170 6        41.300                                                    37414605.285 7 158313357.233 7        43.600    37414615.682 7 150653066.299 7        43.500
C26  24379964.865 6 128117467.557 6        41.100    24379975.848 7  95672170.791 7        45.900    24379966.956 7 126952816.464 7        42.500                                                    24379964.060 7 103159529.445 7        42.700    24379971.794 6  98167947.237 6        41.300
C24  21521091.381 8 113094120.825 8        49.000    21521095.683 8  84453429.127 8        50.000    21521093.330 7 112065996.822 7        47.300                                                    21521085.647 7  91062785.067 7        45.900    21521092.297 7  86656543.677 7        47.000
C39  36173899.870 8 190095095.897 8        48.600    36173902.128 8 141954115.492 8        49.200    36173901.600 7 188366961.569 7        47.600                                                    36173891.847 7 153063587.181 7        46.000    36173898.384 7 145657258.898 7        43.700
C38  35883487.711 7 188568994.211 7        47.300    35883494.773 8 140814459.792 8        49.700    35883489.631 7 186854686.765 7        47.000                                                    35883482.569 7 151834741.065 7        45.700    35883490.997 7 144487871.917 7        45.300
C16                                                                                                  36234588.563 7 188682979.068 7        47.400    36234590.204 7 145901642.413 7        44.200    36234581.209 7 153320335.969 7        42.200
C14                                                                                                  22557785.208 7 117464282.228 7        45.700    22557784.215 7  90830889.463 7        47.000    22557775.830 7  95449435.901 7        46.000
C13                                                                                                  35914093.811 7 187014076.920 7        47.600    35914096.745 7 144611142.464 7        43.600    35914088.084 7 151964219.843 7        43.600
C06                                                                                                  36231313.969 7 188665927.843 7        44.200    36231312.013 7 145888446.774 7        46.000    36231303.831 7 153306529.530 7        43.200
C05                                                                                                  39224640.681 5 204253187.37415        31.700    39224648.388 6 157941387.95616        38.000    39224639.905 5 165972274.82115        35.800
C04                                                                                                  38462865.701 6 200286108.324 6        36.400    38462873.740 7 154873925.784 7        43.100    38462865.235 6 162748843.802 6        40.900
C03                                                                                                  36060205.188 6 187774892.589 6        40.700    36060205.489 7 145199427.855 7        43.900    36060199.221 7 152582430.822 7        42.200
C02                                                                                                  36895488.496 6 192124414.961 6        37.200    36895488.830 7 148562766.202 7        43.400    36895483.731 6 156116792.213 6        40.800
C01                                                                                                  37333155.991 6 194403452.418 6        39.700    37333162.029 7 150325069.203 7        45.000    37333154.529 6 157968698.280 6        40.800
R16  22555427.093 7 120486988.862 7        43.900    22555425.600 7 120486983.852 7        42.000    22555442.258 6  93712125.854 6        41.000    22555444.159 7  93712104.835 7        42.800
R06  21419217.011 5 114296948.202 5        34.000    21419216.174 5 114296984.212 5        33.100
I10  36497804.358 7 143225130.939 7        46.800
G28  22775937.787 6 119688411.852 6        41.600    22775936.440 7 119688418.853 7        43.000    22775960.214 7  93263790.950 7        44.200    22775964.108 7  89377835.479 7        46.200
J02  37103544.084 6 194980443.864 6        41.400    37103542.684 7 194980485.857 7        44.600    37103539.540 6 194980495.158 6        41.400    37103570.674 7 151932906.889 7        44.700    37103571.647 7 145602364.893 7        47.900
G18  22938183.252 7 120540768.486 7        42.800    22938182.066 7 120540671.477 7        45.300    22938207.208 7  93927781.408 7        46.400    22938210.731 7  90014132.369 7        47.800
G23  20142157.546 7 105847704.450 7        47.700    20142156.280 8 105847939.445 8        49.000    20142170.944 8  82478939.732 8        50.500    20142171.786 8  79042328.580 8        52.100
J03  36241776.052 6 190451684.881 6        39.400    36241775.044 7 190451730.901 7        42.300    36241771.484 6 190451757.599 6        40.300    36241802.302 7 148403977.281 7        46.200    36241803.149 7 142220468.557 7        45.800
J07  36502221.958 6 191820384.855 6        39.500    36502220.806 7 191820435.869 7        42.800    36502215.724 7 191820393.604 7        46.100    36502240.234 8 149470511.564 8        49.400    36502239.400 8 143242560.380 8        49.700
J04  38598069.375 7 202834152.927 7        43.300    38598068.354 7 202834268.922 7        47.500    38598066.220 7 202834234.305 7        46.000    38598084.261 7 158052720.204 7        47.900    38598083.042 8 151467178.980 8        49.000
G10  21611946.647 8 113571539.113 8        48.300                                                    21611961.130 7  88497370.027 7        44.900    21611956.306 7  84809979.444 7        47.200
C25  23418572.753 7 123065459.220 7        43.700    23418588.346 7  91899592.640 7        45.100    23418575.497 7 121946690.748 7        43.900                                                    23418575.127 7  99091695.435 7        43.800    23418583.624 6  94296965.031 6        41.300
C33  23461225.256 7 123289732.980 7        45.800    23461256.482 7  92066986.627 7        47.300    23461227.648 7 122168776.882 7        45.400                                                    23461233.676 7  99272167.204 7        45.000    23461252.663 7  94468726.026 7        42.700
C42  23009622.711 7 120916316.012 7        47.000    23009641.453 8  90294687.896 8        48.000    23009624.286 7 119817081.357 7        46.500                                                    23009628.529 7  97361184.184 7        45.500    23009638.530 7  92650191.140 7        45.900
I03  41356983.369 7 162293611.700 7        47.300
G12  22520454.729 7 118345881.483 7        43.500                                                    22520475.771 7  92217829.253 7        44.300
R07  21241521.394 7 113707545.034 7        47.800    21241520.209 7 113707678.036 7        46.000    21241531.031 7  88439367.339 7        45.300    21241530.607 7  88439221.348 7        44.000
R22  21982501.789 7 117344016.133 7        43.500    21982501.558 7 117344038.129 7        43.400    21982519.454 6  91267625.972 6        40.600    21982520.145 7  91267616.969 7        42.000
R10  20681753.094 7 110245433.891 7        43.300    20681751.877 7 110245430.904 7        42.300
G25  21814737.266 7 114637012.713 7        43.900                                                    21814763.163 7  89327801.684 7        43.200    21814762.388 8  85605833.949 8        48.900
G24  22781298.092 6 119716426.773 6        39.400                                                    22781318.839 7  93285448.295 7        44.100    22781316.316 7  89398559.063 7        45.900
E26  24908100.850 7 130892918.402 7        47.000    24908112.745 7  97744733.089 7        45.600    24908108.374 7 100294578.436 7        47.200    24908112.530 8  99019662.074 8        49.400    24908100.658 8 106244222.407 8        49.300
E07  24553986.157 7 129032044.131 7        47.000    24553997.063 7  96355128.550 7        46.900    24553993.516 7  98868726.820 7        47.000    24553997.017 8  97611934.981 8        49.600    24553983.196 8 104733774.698 8        50.400
E13  24992261.863 7 131335064.179 7        45.300    24992282.949 7  98074876.605 7        45.700    24992278.221 7 100633345.509 7        46.800    24992282.420 8  99354117.864 8        49.000    24992265.471 8 106603088.083 8        49.200
E02  26906391.716 6 141394087.468 6        41.000    26906412.167 7 105586593.611 7        44.100    26906407.948 7 108341004.495 7        45.900    26906411.865 8 106963808.349 8        48.200    26906396.018 7 114767932.891 7        44.300
E30  25434096.169 7 133657152.281 7        45.600    25434119.177 7  99809043.053 7        47.200    25434114.179 7 102412731.084 7        47.800    25434118.630 8 101110791.868 8        49.800    25434101.460 8 108487968.449 8        49.500
E08  26024699.774 7 136760632.188 7        43.600    26024715.559 7 102126450.513 7        45.900    26024711.282 7 104790607.384 7        46.500    26024715.032 8 103458537.241 8        49.200    26024700.868 7 111006964.790 7        47.400
> 2024 10 17  4  8 30.0000000  0 42       0.000000000000
C59                                                                                                  36926114.611 7 192283894.602 7        42.300                                                    36926099.431 7 156246320.730 7        45.000    36926108.241 7 148686038.283 7        43.800
C60                                                                                                  37414748.646 6 194828328.129 6        41.200                                                    37414730.635 7 158313886.903 7        42.900    37414740.978 7 150653570.311 7        43.400
C26  24393991.768 6 128191177.008 6        41.600    24394002.439 7  95727213.318 7        45.400    24393992.906 6 127025855.826 6        41.000                                                    24393990.504 7 103218879.754 7        42.700    24393998.656 6  98224425.709 6        41.500
C24  21519861.021 8 113087654.295 8        49.000    21519865.094 8  84448600.186 8        49.500    21519862.454 7 112059589.079 7        47.700                                                    21519855.071 7  91057578.228 7        45.600    21519861.766 7  86651588.773 7        47.000
C39  36176383.367 8 190108146.926 8        48.600    36176385.872 8 141963861.318 8        49.000    36176385.003 7 188379893.952 7        47.300                                                    36176375.518 7 153074095.746 7        45.700    36176381.972 7 145667258.965 7        43.800
C38  35883929.720 7 188571317.028 7        47.000    35883936.696 8 140816194.180 8        49.500    35883931.871 7 186856988.441 7        46.600                                                    35883924.828 7 151836611.253 7        45.400    35883933.135 7 144489651.565 7        45.100
C16                                                                                                  36236595.378 7 188693430.056 7        47.200    36236597.509 7 145909723.679 7        43.800    36236588.381 7 153328828.176 7        42.300
C14                                                                                                  22553627.046 7 117442628.977 7        45.400    22553625.911 7  90814145.697 7        47.100    22553617.729 7  95431840.789 7        45.400
C13                                                                                                  35910942.398 7 186997666.725 7        47.500    35910945.417 7 144598452.959 7        44.000    35910936.668 7 151950885.140 7        43.200
C06                                                                                                  36232118.860 7 188670118.755 7        45.000    36232116.931 7 145891687.343 7        45.600    36232108.615 7 153309934.902 7        42.800
C05                                                                                                  39224549.694 5 204252711.99815        32.200    39224556.834 6 157941020.21816        37.100    39224548.663 5 165971888.41715        35.200
C04                                                                                                  38463108.931 6 200287373.337 6        36.400    38463116.853 7 154874903.786 7        42.900    38463108.492 6 162749871.586 6        40.600
C03                                                                                                  36060355.544 6 187775674.149 6        40.600    36060355.855 7 145200032.090 7        44.600    36060349.404 6 152583065.802 6        41.700
C02                                                                                                  36895521.357 6 192124583.595 6        36.900    36895521.459 7 148562896.486 7        43.800    36895516.233 6 156116929.148 6        41.000
C01                                                                                                  37333310.110 6 194404254.509 6        39.600    37333316.296 7 150325689.305 7        45.200    37333308.790 6 157969349.917 6        41.400
R16  22574326.511 7 120587952.043 7        42.900    22574326.249 7 120587947.058 7        42.000    22574344.137 7  93790652.551 7        43.200    22574344.899 7  93790631.564 7        43.100
R06  21421085.836 5 114306914.397 5        33.900    21421084.362 5 114306950.388 5        32.700
I10  36497475.000 7 143223836.720 7        47.100
G28  22761573.906 7 119612926.765 7        42.600    22761572.121 7 119612933.766 7        43.700    22761595.949 7  93204971.556 7        44.600    22761599.230 7  89321466.942 7        46.400
J02  37103411.731 6 194979747.730 6        41.600    37103410.024 7 194979789.711 7        44.400    37103406.898 6 194979799.024 6        39.700    37103438.122 7 151932364.464 7        44.400    37103439.155 7 145601845.089 7        47.600
G18  22956595.170 7 120637518.881 7        43.700    22956593.493 7 120637421.883 7        45.000    22956618.287 7  94003171.217 7        45.300    22956621.803 7  90086380.913 7        47.500
G23  20141202.191 7 105842682.748 7        46.800    20141200.559 8 105842917.755 8        48.800    20141215.380 8  82475026.538 8        50.800    20141216.223 8  79038578.408 8        52.300
J03  36244292.818 6 190464911.520 6        40.000    36244291.641 7 190464957.518 7        42.800    36244288.764 6 190464984.234 6        39.800    36244319.065 7 148414283.741 7        45.900    36244320.144 7 142230345.573 7        45.100
J07  36502223.070 6 191820389.630 6        39.700    36502221.861 7 191820440.633 7        43.200    36502216.717 7 191820398.367 7        46.700    36502241.537 8 149470515.169 8        50.100    36502240.382 8 143242563.805 8        49.200
J04  38592949.873 7 202807249.147 7        43.900    38592948.936 7 202807365.133 7        47.600    38592946.857 7 202807330.517 7        46.300    38592964.649 8 158031756.089 8        48.100    38592963.643 8 151447088.344 8        48.800
G10  21597430.333 8 113495258.282 8        48.300                                                    21597445.821 7  88437930.377 7        45.100    21597440.593 7  84753016.452 7        47.400
C25  23402477.706 7 122980879.178 7        44.300    23402493.092 7  91836432.419 7        45.400    23402480.009 7 121862879.636 7        43.400                                                    23402479.785 7  99023592.164 7        43.400    23402488.538 6  94232157.105 6        41.700
C33  23452042.737 7 123241476.752 7        45.600    23452073.323 7  92030951.133 7        46.600    23452044.637 7 122120959.348 7        45.300                                                    23452050.738 7  99233311.548 7        45.200    23452070.062 7  94431750.489 7        43.200
C42  23011158.120 7 120924380.823 7        47.200    23011176.205 8  90300710.073 8        48.400    23011159.162 7 119825072.839 7        46.400                                                    23011163.544 7  97367677.747 7        45.300    23011173.382 7  92656370.438 7        45.800
I03  41346836.537 7 162253793.688 7        47.000
G12  22516530.634 7 118325260.635 7        43.600                                                    22516552.043 7  92201761.185 7        44.400
R07  21233935.759 8 113666942.007 8        48.100    21233934.795 7 113667075.022 7        46.300    21233946.783 7  88407787.190 7        45.800    21233945.528 7  88407641.185 7        44.100
R22  21992704.350 7 117398476.387 7        44.500    21992704.059 7 117398498.392 7        43.300    21992723.189 6  91309983.436 6        41.400    21992722.660 7  91309974.427 7        42.100
R10  20662696.846 7 110143852.911 7        44.300    20662695.891 7 110143849.902 7        42.900
G25  21800363.295 7 114561479.532 7        43.200                                                    21800389.589 7  89268944.785 7        42.700    21800388.965 8  85549429.456 8        48.800
G24  22799868.250 6 119814009.960 6        41.100                                                    22799888.184 7  93361486.914 7        43.400    22799885.775 7  89471429.361 7        45.400
E26  24908570.408 7 130895384.632 7        47.000    24908582.140 7  97746574.544 7        45.400    24908578.139 7 100296467.970 7        47.500    24908582.046 8  99021527.563 8        48.800    24908570.087 8 106246224.101 8        49.100
E07  24553904.039 7 129031612.929 7        46.500    24553915.163 7  96354806.479 7        46.900    24553911.632 7  98868396.351 7        47.300    24553915.015 8  97611608.711 8        50.000    24553901.472 8 104733424.641 8        50.500
E13  25006039.782 7 131407465.993 7        45.500    25006061.058 7  98128942.504 7        46.400    25006056.608 7 100688821.872 7        47.300    25006060.455 8  99408888.985 8        49.800    25006043.354 8 106661855.501 8        49.400
E02  26910418.088 6 141415245.124 6        41.400    26910437.946 7 105602393.164 7        43.200    26910434.266 7 108357216.213 7        46.000    26910437.954 7 106979813.978 7        47.100    26910423.113 7 114785106.336 7        45.100
E30  25425726.539 7 133613159.929 7        46.300    25425747.483 7  99776191.737 7        47.000    25425742.403 7 102379022.766 7        47.300    25425747.052 8 101077512.053 8        50.000    25425730.405 8 108452260.460 8        49.900
E08  26030420.541 7 136790683.809 7        43.900    26030434.061 7 102148891.355 7        46.200    26030430.354 7 104813633.671 7        45.900    26030433.984 8 103481270.813 8        49.000    26030420.275 7 111031357.140 7        47.800
> 2024 10 17  4  9  0.0000000  0 43       0.000000000000
C59                                                                                                  36926271.092 7 192284708.304 7        42.300                                                    36926255.748 7 156246981.828 7        44.500    36926264.637 7 148686667.365 7        43.800
C60                                                                                                  37414874.397 6 194828982.375 6        41.200                                                    37414856.354 7 158314418.429 7        43.400    37414866.767 7 150654076.089 7        43.400
C26  24408073.345 7 128265172.086 7        42.500    24408083.234 7  95782469.137 7        44.900    24408074.662 7 127099178.144 7        42.900                                                    24408071.259 7 103278460.006 7        43.200    24408079.757 6  98281122.991 6        41.600
C24  21518722.822 8 113081674.168 8        48.900    21518727.193 8  84444134.479 8        49.900    21518724.880 8 112053663.318 8        48.100                                                    21518717.235 7  91052763.044 7        45.800    21518723.780 7  86647006.576 7        46.900
C39  36178878.209 8 190121257.780 8        48.400    36178880.930 8 141973651.815 8        48.700    36178880.064 7 188392885.618 7        46.900                                                    36178870.424 7 153084652.477 7        45.700    36178877.045 7 145677304.866 7        43.900
C38  35884399.938 7 188573787.214 7        47.300    35884406.972 8 140818038.632 8        48.900    35884401.953 7 186859436.161 7        46.400                                                    35884395.165 7 151838600.112 7        45.200    35884403.228 7 144491544.148 7        45.000
C16                                                                                                  36238617.927 8 188703959.639 8        48.000    36238619.669 7 145917865.734 7        43.700    36238610.571 7 153337384.259 7        42.200
C14                                                                                                  22549489.193 7 117421082.253 7        45.000    22549488.049 7  90797484.302 7        47.400    22549479.834 7  95414332.233 7        45.400
C13                                                                                                  35907813.327 7 186981372.382 7        47.600    35907816.479 7 144585853.049 7        43.700    35907807.580 7 151937644.581 7        43.400
C06                                                                                                  36232941.714 7 188674402.799 7        44.700    36232939.688 7 145894999.932 7        45.300    36232931.442 7 153313415.956 7        42.400
C05                                                                                                  39224459.076 5 204252237.60315        32.700    39224466.191 6 157940653.22316        38.400    39224457.765 5 165971502.80315        34.800
C04                                                                                                  38463352.362 6 200288639.282 6        36.900    38463360.043 7 154875882.510 7        42.700    38463351.583 6 162750900.117 6        40.200
C03                                                                                                  36060505.713 6 187776456.564 6        40.600    36060506.005 7 145200636.994 7        43.300    36060499.851 7 152583701.500 7        42.300
C02                                                                                                  36895554.082 6 192124754.737 6        37.200    36895554.411 7 148563028.698 7        44.100    36895549.288 6 156117068.118 6        40.300
C01                                                                                                  37333464.482 6 194405057.715 6        39.800    37333470.491 7 150326310.276 7        44.600    37333463.201 6 157970002.521 6        41.400
R16  22593312.013 7 120689359.505 7        45.400    22593310.390 7 120689354.511 7        42.400    22593328.282 7  93869524.771 7        42.800    22593328.707 7  93869503.814 7        42.700
R06  21422983.987 5 114317046.63015        34.700    21422983.258 5 114317082.637 5        34.100
I10  36497144.328 7 143222540.411 7        47.700
G28  22747272.211 7 119537773.846 7        43.000    22747270.690 7 119537780.840 7        43.900    22747294.696 7  93146411.020 7        44.800    22747298.212 7  89265346.431 7        46.500
J02  37103286.370 6 194979088.297 6        39.800    37103284.785 7 194979130.262 7        44.300    37103281.623 6 194979139.591 6        39.900    37103312.664 7 151931850.638 7        44.600    37103313.497 7 145601352.688 7        47.600
G18  22975028.795 7 120734391.928 7        42.400    22975027.899 7 120734294.926 7        44.500    22975052.486 7  94078656.563 7        44.300    22975056.112 7  90158721.009 7        46.900
G23  20140339.980 7 105838150.241 7        47.300    20140338.739 8 105838385.245 8        49.100    20140352.976 8  82471494.532 8        50.500    20140354.037 8  79035193.535 8        52.200
J03  36246818.550 6 190478183.019 6        39.700    36246817.184 7 190478229.003 7        42.900    36246813.558 6 190478255.729 6        40.000    36246844.963 7 148424625.173 7        45.700    36246845.570 7 142240256.132 7        45.600
J07  36502224.179 6 191820394.596 6        40.100    36502222.927 7 191820445.577 7        42.800    36502217.804 7 191820403.344 7        46.100    36502242.549 8 149470518.898 8        49.600    36502241.389 8 143242567.357 8        49.600
J04  38587820.428 7 202780294.841 7        44.100    38587819.526 7 202780410.843 7        47.700    38587817.359 7 202780376.219 7        47.200    38587835.491 7 158010752.625 7        47.700    38587834.647 8 151426959.990 8        49.400
G10  21582956.240 7 113419197.150 7        47.800                                                    21582971.786 7  88378661.944 7        45.000    21582966.377 7  84696217.532 7        47.000
C25  23386428.104 7 122896539.754 7        44.600    23386443.769 7  91773451.856 7        45.500    23386430.899 7 121779306.936 7        43.200                                                    23386430.511 7  98955682.629 7        43.200    23386439.591 7  94167533.574 7        42.500
C33  23442862.286 7 123193234.512 7        46.100    23442893.392 7  91994926.099 7        47.100    23442864.216 7 122073155.665 7        45.300                                                    23442870.400 7  99194467.164 7        44.600    23442889.788 7  94394785.674 7        43.000
C42  23012724.967 7 120932615.232 7        47.700    23012743.466 7  90306858.899 7        47.900    23012726.426 7 119833232.367 7        46.300                                                    23012730.872 7  97374307.873 7        45.500    23012740.547 7  92662679.695 7        45.900
I03  41336691.094 7 162213979.778 7        47.600
G32
G12  22512700.013 7 118305133.088 7        42.700                                                    22512721.618 7  92186077.517 7        44.800
R07  21226346.391 7 113626315.526 7        47.500    21226345.145 7 113626448.534 7        46.300    21226356.927 7  88376188.804 7        45.700    21226356.213 7  88376042.806 7        44.700
R22  22002996.879 7 117453417.228 7        43.700    22002996.218 7 117453439.222 7        43.000    22003014.894 7  91352714.669 7        42.000    22003015.275 6  91352705.646 6        41.400
R10  20643729.745 7 110042747.920 7        44.900    20643728.408 7 110042744.919 7        43.200
G25  21786046.069 7 114486240.685 7        44.100                                                    21786071.420 7  89210317.217 7        42.000    21786071.200 8  85493244.758 8        48.400
G24  22818459.402 6 119911704.782 6        39.900                                                    22818479.108 7  93437612.522 7        42.400    22818476.864 7  89544383.013 7        45.200
E26  24909119.080 7 130898266.771 7        47.700    24909130.729 7  97748726.588 7        46.000    24909126.879 7 100298676.165 7        47.300    24909130.753 8  99023707.680 8        49.400    24909118.361 8 106248563.333 8        48.400
E07  24553816.770 7 129031153.341 7        46.900    24553827.466 7  96354463.198 7        46.600    24553824.099 7  98868044.110 7        47.300    24553827.655 8  97611260.952 8        49.600    24553813.946 8 104733051.537 8        50.200
E13  25019854.902 7 131480062.801 7        45.300    25019875.905 7  98183154.015 7        45.800    25019871.679 7 100744447.643 7        47.400    25019875.528 8  99463807.629 8        49.700    25019858.128 8 106720781.207 8        48.800
E02  26914514.265 6 141436774.502 6        41.200    26914535.143 7 105618470.279 7        42.900    26914531.426 7 108373712.708 7        45.900    26914534.768 7 106996100.794 7        47.300    26914520.368 7 114802581.445 7        45.600
E30  25417405.549 7 133569440.387 7        45.600    25417427.967 7  99743544.171 7        47.300    25417422.837 7 102345523.508 7        47.100    25417427.449 8 101044438.642 8        49.800    25417410.714 8 108416773.926 8        49.900
E08  26036127.766 7 136820680.286 7        43.700    26036142.545 7 102171291.019 7        45.900    26036138.639 7 104836617.720 7        45.800    26036142.411 8 103503962.665 8        49.000    26036128.374 7 111055704.724 7        47.900
> 2024 10 17  4  9 30.0000000  0 43       0.000000000000
C59                                                                                                  36926427.622 7 192285523.926 7        42.200                                                    36926412.504 7 156247644.487 7        44.300    36926421.372 7 148687297.936 7        43.900
C60                                                                                                  37415000.476 6 194829638.618 6        41.400                                                    37414982.470 7 158314951.572 7        43.600    37414992.939 7 150654583.407 7        43.600
C26  24422207.822 7 128339450.374 7        43.700    24422218.090 7  95837936.489 7        44.300    24422210.108 7 127172781.171 7        43.800                                                    24422206.370 7 103338268.367 7        43.500    24422214.784 6  98338037.344 6        41.600
C24  21517677.383 8 113076180.222 8        48.600    21517681.593 8  84440031.812 8        50.200    21517679.501 8 112048219.306 8        48.400                                                    21517671.701 7  91048339.312 7        45.700    21517678.362 7  86642796.892 7        46.900
C39  36181384.610 8 190134427.693 8        48.400    36181386.991 8 141983486.413 8        48.700    36181386.163 7 188405935.815 7        47.000                                                    36181376.578 7 153095256.771 7        45.800    36181383.212 7 145687396.035 7        44.100
C38  35884898.289 7 188576404.880 7        47.300    35884905.162 8 140819993.207 8        49.300    35884899.714 7 186862030.044 7        47.300                                                    35884893.525 7 151840707.716 7        46.000    35884901.442 7 144493549.748 7        45.100
C16                                                                                                  36240654.886 7 188714567.151 7        47.300    36240657.038 7 145926068.053 7        44.100    36240647.692 7 153346003.657 7        42.300
C14                                                                                                  22545371.901 7 117399643.126 7        44.800    22545371.074 7  90780906.102 7        47.100    22545362.780 7  95396911.102 7        45.200
C13                                                                                                  35904706.860 7 186965194.323 7        47.800    35904709.821 7 144573343.040 7        44.100    35904700.900 7 151924498.505 7        42.800
C06                                                                                                  36233782.052 7 188678779.230 7        45.000    36233780.265 7 145898383.957 7        45.500    36233772.111 7 153316972.078 7        42.600
C05                                                                                                  39224368.080 5 204251764.00915        32.500    39224375.194 6 157940286.87816        38.100    39224367.009 5 165971117.86115        35.700
C04                                                                                                  38463595.775 6 200289905.902 6        36.500    38463603.526 7 154876861.752 7        43.000    38463595.093 6 162751929.196 6        40.700
C03                                                                                                  36060656.308 6 187777239.612 6        40.600    36060656.409 7 145201242.389 7        44.000    36060650.285 7 152584337.702 7        42.600
C02                                                                                                  36895587.511 6 192124928.075 6        37.100    36895587.737 7 148563162.602 7        43.900    36895582.526 6 156117208.861 6        40.600
C01                                                                                                  37333619.030 6 194405861.835 6        39.700    37333625.007 7 150326931.947 7        44.600    37333617.710 6 157970655.801 6        41.100
R16  22612377.843 7 120791207.210 7        45.400    22612376.841 7 120791202.193 7        43.500    22612394.011 7  93948739.392 7        42.700    22612394.896 7  93948718.432 7        43.000
R06  21424916.159 5 114327346.566 5        35.400    21424913.386 5 114327382.542 5        33.900
I10  36496813.625 8 143221241.833 8        48.100
G28  22733034.075 6 119462953.947 6        40.800    22733032.387 7 119462960.926 7        43.900    22733056.975 7  93088109.933 7        45.200    22733059.946 7  89209474.623 7        45.700
J02  37103167.309 6 194978465.502 6        39.900    37103166.157 7 194978507.525 7        44.100    37103163.092 6 194978516.788 6        40.400    37103193.923 7 151931365.405 7        45.200    37103194.981 7 145600887.667 7        47.900
G18  22993486.506 6 120831384.321 6        41.600    22993484.523 7 120831287.317 7        43.800    22993509.975 7  94154234.915 7        44.100    22993513.268 7  90231150.238 7        46.900
G23  20139570.826 7 105834108.105 7        46.100    20139569.278 8 105834343.096 8        49.400    20139584.314 8  82468344.651 8        50.000    20139584.960 8  79032174.838 8        52.600
J03  36249352.230 6 190491498.789 6        40.400    36249351.337 7 190491544.796 7        43.100    36249347.950 6 190491571.499 6        39.500    36249379.086 7 148435001.120 7        45.200    36249379.436 7 142250199.751 7        44.500
J07  36502225.566 6 191820399.465 6        40.100    36502224.062 7 191820450.474 7        42.800    36502218.817 7 191820408.213 7        46.000    36502243.468 8 149470522.597 8        49.200    36502242.551 8 143242570.875 8        49.500
J04  38582682.296 7 202753290.119 7        43.900    38582681.103 7 202753406.113 7        47.600    38582678.866 7 202753371.490 7        46.200    38582696.631 7 157989709.855 7        47.200    38582695.795 8 151406793.969 8        49.200
G10  21568525.261 7 113343358.272 7        47.500                                                    21568540.088 7  88319566.682 7        45.800    21568534.974 7  84639584.562 7        47.000
C25  23370424.942 7 122812442.779 7        45.400    23370440.474 7  91710652.349 7        45.700    23370427.513 7 121695974.490 7        44.200                                                    23370427.398 7  98887968.320 7        43.900    23370436.216 7  94103095.810 7        42.500
C33  23433684.786 7 123145007.164 7        46.300    23433715.849 7  91958912.188 7        46.700    23433687.123 7 122025366.754 7        45.200                                                    23433693.149 7  99155634.750 7        44.500    23433712.601 7  94357832.255 7        43.600
C42  23014324.060 7 120941020.246 7        46.900    23014343.290 8  90313135.114 8        48.000    23014325.994 7 119841560.963 7        46.200                                                    23014330.607 7  97381075.355 7        45.500    23014340.443 7  92669119.673 7        46.000
I03  41326546.405 7 162174169.840 7        47.800
G32
G12  22508964.140 7 118285500.288 7        42.400                                                    22508985.444 7  92170779.338 7        44.100
R07  21218753.134 7 113585667.095 7        47.800    21218751.493 7 113585800.126 7        46.700    21218762.877 7  88344573.340 7        45.100    21218762.811 7  88344427.342 7        44.600
R22  22013378.715 7 117508834.836 7        43.500    22013378.468 7 117508856.834 7        43.300    22013396.208 7  91395816.709 7        42.900    22013397.433 7  91395807.721 7        42.900
R10  20624852.366 7 109942123.698 7        44.000    20624851.344 7 109942120.711 7        43.100
G25  21771785.046 7 114411299.244 7        43.200                                                    21771810.646 7  89151921.411 7        43.700    21771810.166 8  85437282.136 8        49.100
G24  22837071.057 6 120009508.498 6        40.500                                                    22837090.242 6  93513822.964 6        41.400    22837088.503 7  89617417.918 7        45.400
E26  24909746.587 7 130901564.178 7        47.000    24909758.568 7  97751188.708 7        45.700    24909754.633 7 100301202.550 7        46.400    24909758.449 8  99026201.937 8        49.100    24909746.287 8 106251239.623 8        48.500
E07  24553724.061 7 129030664.800 7        47.400    24553734.841 7  96354098.278 7        46.700    24553730.986 7  98867669.687 7        46.900    24553734.766 8  97610891.280 8        49.800    24553721.079 8 104732654.915 8        50.200
E13  25033706.579 7 131552852.295 7        45.200    25033727.579 7  98237509.425 7        45.700    25033723.345 7 100800221.054 7        47.500    25033727.151 8  99518872.038 8        49.300    25033709.931 8 106779863.328 8        49.100
E02  26918681.628 6 141458675.209 6        40.000    26918703.324 7 105634824.663 7        44.200    26918698.669 7 108390493.759 7        43.700    26918702.420 7 107012668.503 7        47.500    26918687.080 7 114820357.947 7        45.200
E30  25409139.165 7 133525995.236 7        46.000    25409160.493 7  99711101.501 7        47.800    25409155.337 7 102312234.498 7        46.800    25409160.035 8 101011572.801 8        50.300    25409143.181 8 108381510.102 8        50.000
E08  26041826.113 7 136850621.767 7        43.600    26041840.671 7 102193649.603 7        45.800    26041836.085 7 104859559.605 7        45.800    26041840.284 8 103526612.904 8        49.100    26041826.659 7 111080007.645 7        47.700
> 2024 10 17  4 10  0.0000000  0 43       0.000000000000
C59                                                                                                  36926584.944 7 192286341.676 7        42.000                                                    36926569.653 7 156248308.876 7        44.500    36926578.552 7 148687930.143 7        43.700
C60                                                                                                  37415127.108 6 194830297.086 6        41.200                                                    37415109.117 7 158315486.533 7        43.800    37415119.576 7 150655092.439 7        43.400
C26  24436396.248 7 128414010.074 7        43.100    24436406.660 7  95893614.014 7        44.200    24436397.173 7 127246663.084 7        42.200                                                    24436394.918 7 103398303.305 7        43.500    24436403.282 6  98395167.321 6        41.400
C24  21516724.526 8 113071172.638 8        48.700    21516728.867 8  84436292.343 8        49.700    21516726.450 8 112043257.254 8        48.700                                                    21516718.696 7  91044307.201 7        45.400    21516725.326 7  86638959.884 7        46.900
C39  36183901.987 8 190147656.271 8        48.200    36183904.362 8 141993364.814 8        48.600    36183903.671 7 188419044.125 7        47.000                                                    36183894.003 7 153105908.291 7        45.200    36183900.697 7 145697532.149 7        44.200
C38  35885424.644 8 188579170.480 8        48.100    35885431.708 8 140822058.258 8        49.600    35885426.516 7 186864770.514 7        46.900                                                    35885420.079 7 151842934.447 7        46.200    35885427.814 7 144495668.694 7        44.900
C16                                                                                                  36242706.711 7 188725252.270 7        47.400    36242708.857 7 145934330.382 7        43.900    36242699.867 7 153354686.122 7        42.100
C14                                                                                                  22541276.011 7 117378313.248 7        45.000    22541274.943 7  90764412.397 7        46.600    22541266.711 7  95379578.762 7        45.900
C13                                                                                                  35901622.178 7 186949133.281 7        47.600    35901625.508 7 144560923.535 7        44.500    35901616.544 7 151911447.521 7        43.400
C06                                                                                                  36234640.453 7 188683247.931 7        45.000    36234638.545 7 145901839.330 7        45.800    36234630.422 7 153320603.176 7        42.600
C05                                                                                                  39224277.650 5 204251291.44515        32.100    39224284.870 6 157939921.29616        38.300    39224276.322 6 165970733.73716        36.100
C04                                                                                                  38463839.449 6 200291173.391 6        36.900    38463847.105 7 154877841.663 7        42.800    38463838.629 6 162752958.983 6        39.900
C03                                                                                                  36060806.973 6 187778023.514 6        40.600    36060807.270 7 145201848.430 7        43.900    36060800.851 7 152584974.599 7        42.400
C02                                                                                                  36895621.164 6 192125103.722 6        37.100    36895621.435 7 148563298.291 7        44.800    36895616.420 6 156117351.483 6        40.600
C01                                                                                                  37333773.688 6 194406667.100 6        39.900    37333779.978 7 150327554.502 7        44.500    37333772.329 6 157971310.046 6        41.100
R16  22631525.912 7 120893491.253 7        43.700    22631526.126 7 120893486.222 7        43.500    22631542.030 7  94028293.475 7        42.100    22631542.307 7  94028272.489 7        42.100
R06  21426877.754 5 114337816.555 5        34.900    21426875.370 5 114337852.567 5        34.300
I10  36496482.378 7 143219941.151 7        47.500
G28  22718860.299 6 119388468.243 6        41.800    22718858.652 7 119388475.231 7        43.900    22718882.094 7  93030069.297 7        44.900    22718885.823 7  89153852.354 7        46.200
J02  37103055.771 6 194977879.939 6        39.200    37103053.969 7 194977921.915 7        44.000    37103051.899 6 194977931.232 6        39.600    37103082.620 7 151930909.125 7        45.100    37103083.897 8 145600450.400 8        48.000
G18  23011965.788 6 120928493.031 6        40.200    23011963.804 7 120928396.021 7        42.700    23011988.857 7  94229903.933 7        43.400    23011992.563 7  90303666.349 7        46.600
G23  20138895.437 7 105830557.883 7        45.500    20138893.881 8 105830792.879 8        49.200    20138908.618 8  82465578.079 8        50.900    20138909.620 8  79029523.494 8        52.500
J03  36251894.809 6 190504858.731 6        40.200    36251893.248 7 190504904.723 7        43.500    36251890.278 6 190504931.441 6        40.500    36251921.382 7 148445411.463 7        45.500    36251921.699 7 142260176.350 7        44.500
J07  36502226.181 6 191820404.501 6        39.100    36502224.910 7 191820455.507 7        42.900    36502219.837 7 191820413.247 7        47.200    36502244.536 8 149470526.397 8        49.700    36502243.658 8 143242574.483 8        49.100
J04  38577533.444 7 202726235.390 7        43.900    38577532.626 7 202726351.382 7        47.600    38577530.303 7 202726316.760 7        46.500    38577548.918 7 157968628.109 7        47.700    38577547.679 8 151386590.616 8        49.300
G10  21554136.329 7 113267744.539 7        47.200                                                    21554150.963 7  88260646.868 7        45.600    21554146.152 7  84583119.736 7        47.200
C25  23354468.322 7 122728590.380 7        44.900    23354483.662 7  91648035.463 7        46.400    23354470.986 7 121612884.382 7        44.100                                                    23354470.580 7  98820450.926 7        43.900    23354478.992 7  94038845.419 7        42.000
C33  23424510.827 7 123096796.126 7        46.400    23424541.761 7  91922910.420 7        47.100    23424512.600 7 121977593.988 7        46.100                                                    23424518.853 7  99116815.467 7        44.700    23424538.504 7  94320891.339 7        43.500
C42  23015956.585 7 120949597.294 7        47.000    23015975.635 8  90319539.805 8        48.500    23015958.294 7 119850060.049 7        46.000                                                    23015962.669 7  97387981.375 7        45.100    23015972.810 7  92675691.469 7        46.000
I03  41316403.052 7 162134364.038 7        47.000
G32
G12  22505322.451 7 118266364.520 7        42.500                                                    22505343.622 7  92155868.449 7        43.700
R07  21211155.849 7 113544998.150 7        47.600    21211154.300 7 113545131.174 7        46.700    21211165.548 7  88312941.919 7        46.100    21211165.312 7  88312795.929 7        44.800
R22  22023849.704 7 117564725.436 7        43.000    22023848.874 6 117564747.442 6        41.500    22023867.266 7  91439286.713 7        43.200    22023868.030 7  91439277.725 7        42.800
R10  20606066.184 7 109841983.611 7        44.100    20606065.121 7 109841980.609 7        43.400
G25  21757581.050 7 114336658.632 7        43.600                                                    21757606.479 7  89093760.025 7        43.200    21757606.806 8  85381544.148 8        49.400
G24  22855702.362 6 120107418.678 6        40.400                                                    22855723.052 7  93590116.343 7        43.800    22855720.448 7  89690532.414 7        45.000
E26  24910453.245 7 130905276.543 7        46.700    24910465.115 7  97753960.738 7        44.900    24910461.132 7 100304046.920 7        46.600    24910464.996 8  99029010.122 8        48.200    24910453.095 8 106254252.777 8        49.000
E07  24553625.586 7 129030147.184 7        47.700    24553636.402 7  96353711.643 7        46.600    24553632.689 7  98867272.972 7        47.000    24553636.373 8  97610499.600 8        49.400    24553622.274 8 104732234.703 8        50.000
E13  25047594.363 7 131625832.601 7        44.800    25047615.616 7  98292007.347 7        46.000    25047611.265 7 100856140.694 7        46.700    25047615.104 8  99574080.811 8        49.300    25047597.496 8 106839100.319 8        48.900
E02  26922920.500 6 141480947.142 6        41.300    26922942.227 7 105651456.239 7        45.000    26922937.030 7 108407559.255 7        45.200    26922941.041 7 107029517.043 7        47.900    26922924.847 7 114838435.767 7        44.300
E30  25400924.001 7 133482826.354 7        46.400    25400945.491 7  99678865.140 7        46.800    25400940.424 7 102279157.171 7        47.100    25400945.109 8 100978915.955 8        50.100    25400928.330 8 108346470.526 8        49.700
E08  26047512.513 7 136880508.847 7        43.500    26047528.467 7 102215967.589 7        45.200    26047523.988 7 104882459.819 7        45.200    26047527.856 8 103549222.006 8        48.000    26047513.662 7 111104266.412 7        47.200
> 2024 10 17  4 10 30.0000000  0 44       0.000000000000
C59                                                                                                  36926742.548 6 192287161.872 6        41.700                                                    36926727.379 7 156248975.239 7        44.800    36926736.105 7 148688564.232 7        43.700
C60                                                                                                  37415253.997 6 194830958.034 6        40.900                                                    37415236.048 7 158316023.487 7        43.400    37415246.533 7 150655603.392 7        43.300
C26  24450637.923 7 128488849.428 7        43.000    24450648.265 7  95949500.336 7        44.400    24450639.822 7 127320822.070 7        42.700                                                    24450636.734 7 103458563.402 7        43.700    24450644.916 6  98452511.566 6        40.800
C24  21515864.596 8 113066651.746 8        49.000    21515868.470 8  84432916.327 8        49.600    21515866.296 8 112038777.474 8        48.300                                                    21515858.324 7  91040666.981 7        46.200    21515865.312 7  86635495.797 7        47.000
C39  36186430.205 7 190160943.254 7        47.800    36186432.787 8 142003286.833 8        48.400    36186431.943 7 188432210.314 7        46.500                                                    36186422.458 7 153116606.844 7        45.200    36186429.293 7 145707713.004 7        44.100
C38  35885979.344 7 188582084.670 7        47.500    35885986.357 8 140824234.271 8        49.100    35885980.973 7 186867658.209 7        46.400                                                    35885974.678 7 151845280.805 7        45.300    35885982.576 7 144497901.487 7        45.000
C16                                                                                                  36244773.714 7 188736014.762 7        46.400    36244775.861 7 145942652.532 7        44.600    36244766.622 7 153363431.467 7        42.100
C14                                                                                                  22537201.157 7 117357094.330 7        45.200    22537200.189 7  90748004.483 7        47.400    22537191.878 7  95362336.580 7        46.000
C13                                                                                                  35898560.511 7 186933189.971 7        47.200    35898563.862 7 144548595.051 7        43.900    35898554.931 7 151898492.205 7        43.000
C06                                                                                                  36235516.378 7 188687808.694 7        46.000    36235514.446 7 145905365.903 7        45.800    36235506.437 7 153324309.089 7        42.700
C05                                                                                                  39224186.943 5 204250820.12715        31.800    39224194.211 6 157939556.68716        37.900    39224186.083 5 165970350.61815        35.700
C04                                                                                                  38464083.165 6 200292442.037 6        36.200    38464090.757 7 154878822.465 7        42.800    38464082.582 6 162753989.709 6        40.200
C03                                                                                                  36060957.628 6 187778808.544 6        40.600    36060958.131 7 145202455.349 7        43.900    36060951.772 7 152585612.405 7        42.200
C02                                                                                                  36895655.674 6 192125282.004 6        36.900    36895656.172 7 148563435.994 7        43.800    36895650.894 6 156117496.230 6        41.300
C01                                                                                                  37333928.640 6 194407473.729 6        39.800    37333934.960 7 150328178.112 7        44.200    37333927.389 6 157971965.397 6        40.900
R16  22650755.143 7 120996208.310 7        42.900    22650754.794 7 120996203.318 7        42.800    22650771.442 7  94108184.328 7        43.500    22650771.361 7  94108163.317 7        42.200
R06  21428871.470 5 114348458.492 5        33.200    21428869.550 5 114348494.478 5        33.400
I10  36496150.497 8 143218638.594 8        48.000
G28  22704749.581 7 119314318.094 7        42.500    22704748.045 7 119314325.091 7        43.800    22704772.107 7  92972290.110 7        45.300    22704775.176 7  89098480.677 7        46.100
J02  37102951.551 6 194977331.971 6        39.600    37102950.443 7 194977373.979 7        44.300    37102947.169 6 194977383.256 6        40.000    37102978.138 7 151930482.184 7        44.400    37102979.442 7 145600041.261 7        47.800
G18  23030466.289 6 121025715.094 6        40.500    23030464.657 7 121025618.086 7        42.600    23030489.996 7  94305661.277 7        42.600    23030493.514 7  90376267.104 7        46.300
G23  20138313.641 7 105827501.307 7        45.600    20138312.430 8 105827736.305 8        49.000    20138327.280 8  82463196.156 8        50.800    20138328.086 8  79027240.784 8        52.700
J03  36254445.531 6 190518262.663 6        41.300    36254444.387 7 190518308.667 7        43.900    36254441.148 6 190518335.369 6        41.300    36254471.802 7 148455856.125 7        45.800    36254472.540 7 142270185.814 7        43.900
J07  36502227.760 6 191820409.925 6        39.000    36502226.122 7 191820460.931 7        43.200    36502220.915 7 191820418.666 7        46.400    36502245.594 8 149470530.505 8        49.200    36502244.721 8 143242578.409 8        49.600
J04  38572376.340 7 202699131.216 7        43.700    38572375.045 7 202699247.209 7        47.600    38572372.700 7 202699212.593 7        46.500    38572391.252 7 157947507.850 7        47.500    38572390.032 8 151366350.346 8        49.200
G10  21539791.191 7 113192359.058 7        46.800                                                    21539805.801 7  88201904.897 7        45.300    21539801.034 7  84526825.340 7        47.900
C25  23338558.794 7 122644984.876 7        44.100    23338574.040 7  91585602.963 7        45.200    23338561.153 7 121530038.965 7        43.900                                                    23338560.890 7  98753132.352 7        44.300    23338569.294 7  93974784.224 7        42.000
C33  23415340.082 7 123048602.795 7        46.700    23415371.117 7  91886921.893 7        47.800    23415341.849 7 121929838.788 7        45.600                                                    23415348.262 7  99078010.438 7        45.200    23415367.467 7  94283963.971 7        43.500
C42  23017622.055 7 120958347.923 7        47.000    23017641.236 8  90326074.110 8        48.400    23017623.366 7 119858731.124 7        45.500                                                    23017628.127 7  97395027.151 7        45.100    23017638.169 7  92682396.266 7        46.200
I03  41306260.639 7 162094562.479 7        47.400
G32
G12  22501775.804 7 118247727.831 7        42.600                                                    22501798.235 7  92141346.457 7        44.500
R07  21203554.732 7 113504310.530 7        47.800    21203553.472 7 113504443.553 7        45.800    21203564.927 7  88281295.976 7        46.100    21203564.370 7  88281149.986 7        45.000
R22  22034408.325 7 117621085.402 7        42.500    22034407.480 6 117621107.414 6        41.800    22034426.588 7  91483121.749 7        43.000    22034426.927 7  91483112.746 7        43.200
R10  20587371.247 7 109742332.825 7        44.000    20587370.531 7 109742329.839 7        42.800
G25  21743435.270 6 114262322.341 6        40.700                                                    21743460.686 7  89035835.752 7        43.100    21743461.144 8  85326033.439 8        50.000
G24  22874354.225 6 120205433.241 6        39.400                                                    22874374.728 7  93666491.101 7        42.000    22874372.513 7  89763724.823 7        46.100
E26  24911238.887 7 130909403.847 7        46.700    24911250.817 7  97757042.588 7        44.800    24911246.714 7 100307209.191 7        46.200    24911250.528 8  99032132.182 8        48.400    24911238.721 8 106257602.729 8        49.100
E07  24553521.584 7 129029600.324 7        47.400    24553532.432 7  96353303.182 7        46.700    24553528.708 7  98866853.874 7        47.400    24553532.421 8  97610085.820 8        50.100    24553518.366 8 104731790.754 8        50.100
E13  25061517.943 7 131699001.958 7        45.100    25061539.689 7  98346646.410 7        46.000    25061535.232 7 100912205.167 7        47.000    25061539.122 8  99629432.587 8        49.100    25061521.563 8 106898490.778 8        48.700
E02  26927229.681 7 141503590.439 7        42.500    26927250.394 7 105668365.173 7        43.700    26927245.174 7 108424909.258 7        44.300    26927249.760 7 107046646.516 7        46.700    26927234.594 7 114856815.049 7        45.600
E30  25392762.619 7 133439935.785 7        47.400    25392783.560 7  99646836.614 7        47.100    25392778.411 7 102246293.104 7        47.300    25392783.169 8 100946469.661 8        50.100    25392766.097 8 108311656.855 8        49.600
E27  26689893.435 6 140256339.32316        39.100    26689917.898 6 104737073.32316        38.900    26689913.485 6 107469338.48116        40.300    26689917.171 7 106102984.69617        43.500    26689900.826 6 113844420.43816        40.500
E08  26053190.378 7 136910342.122 7        44.000    26053205.834 7 102238245.388 7        45.300    26053201.180 7 104905318.830 7        45.600    26053205.267 8 103571790.404 8        48.500    26053190.645 7 111128481.536 7        46.600
> 2024 10 17  4 11  0.0000000  0 44       0.000000000000
C59                                                                                                  36926900.608 7 192287984.323 7        42.000                                                    36926885.313 7 156249643.443 7        44.300    36926894.225 7 148689200.066 7        43.900
C60                                                                                                  37415381.473 6 194831621.388 6        41.200                                                    37415363.605 7 158316562.393 7        43.800    37415374.109 7 150656116.174 7        43.200
C26  24464932.583 7 128563966.157 7        43.000    24464942.537 7  96005593.792 7        44.100    24464933.489 7 127395255.915 7        42.300                                                    24464931.084 7 103519046.844 7        43.000    24464939.320 6  98510068.358 6        40.900
C24  21515096.703 8 113062617.426 8        48.900    21515100.735 8  84429903.633 8        49.800    21515098.330 7 112034779.816 7        47.600                                                    21515090.868 7  91037418.534 7        45.400    21515097.672 7  86632404.515 7        47.200
C39  36188969.819 8 190174287.990 8        48.200    36188972.245 8 142013251.967 8        48.500    36188971.565 7 188445433.735 7        47.000                                                    36188961.986 7 153127351.890 7        45.600    36188968.855 7 145717938.109 7        44.300
C38  35886562.260 7 188585147.587 7        47.400    35886569.463 8 140826521.337 8        49.400    35886564.037 7 186870693.275 7        47.100                                                    35886557.662 7 151847746.909 7        45.900    35886565.631 7 144500248.230 7        44.900
C16                                                                                                  36246855.382 7 188746854.026 7        47.000    36246857.497 7 145951034.041 7        44.200    36246848.426 7 153372239.171 7        42.400
C14                                                                                                  22533148.050 7 117335987.518 7        45.300    22533146.814 7  90731683.253 7        46.300    22533138.698 7  95345185.487 7        45.200
C13                                                                                                  35895521.783 7 186917365.175 7        47.500    35895524.939 7 144536358.225 7        43.900    35895516.137 7 151885633.181 7        43.400
C06                                                                                                  36236409.872 7 188692461.068 7        45.700    36236408.111 7 145908963.315 7        46.200    36236399.921 7 153328089.449 7        42.500
C05                                                                                                  39224096.547 5 204250349.94215        32.300    39224104.147 6 157939192.93716        37.600    39224095.790 5 165969968.42415        35.700
C04                                                                                                  38464327.097 6 200293711.726 6        37.100    38464334.849 7 154879804.096 7        42.400    38464326.510 6 162755021.285 6        40.300
C03                                                                                                  36061108.651 6 187779594.555 6        40.800    36061109.084 7 145203063.019 7        43.800    36061102.804 7 152586251.006 7        42.400
C02                                                                                                  36895690.470 6 192125462.871 6        36.700    36895690.995 7 148563575.709 7        43.700    36895685.687 6 156117643.088 6        41.000
C01                                                                                                  37334083.946 6 194408281.596 6        40.100    37334090.320 7 150328802.674 7        44.200    37334082.791 6 157972621.760 6        40.800
R16  22670064.270 7 121099354.118 7        44.300    22670063.939 7 121099349.097 7        42.700    22670079.205 7  94188408.630 7        42.500    22670080.510 6  94188387.631 6        41.900
R06  21430898.443 5 114359274.261 5        33.400    21430896.880 5 114359310.279 5        33.200
I10  36495818.638 7 143217334.102 7        47.500
G28  22690702.976 7 119240504.491 7        43.400    22690701.880 7 119240511.499 7        44.500    22690725.198 7  92914773.179 7        44.000    22690728.862 7  89043360.319 7        46.300
J02  37102854.402 6 194976821.900 6        41.400    37102853.332 7 194976863.905 7        44.600    37102850.495 6 194976873.179 6        41.000    37102881.431 7 151930084.748 7        44.600    37102882.357 7 145599660.371 7        47.800
G18  23048988.310 6 121123047.327 6        41.200    23048986.758 7 121122950.327 7        42.800    23049011.989 7  94381504.463 7        42.500    23049015.377 7  90448950.138 7        45.800
G23  20137826.434 7 105824939.581 7        46.300    20137824.918 8 105825174.577 8        49.300    20137840.029 8  82461199.827 8        50.700    20137840.899 8  79025327.609 8        52.400
J03  36257004.172 6 190531710.175 6        40.900    36257003.456 7 190531756.172 7        44.000    36256999.711 6 190531782.885 6        41.500    36257030.938 7 148466334.720 7        45.800    36257031.436 7 142280227.781 7        43.900
J07  36502228.367 6 191820415.743 6        40.200    36502227.392 7 191820466.741 7        43.300    36502222.069 7 191820424.484 7        46.300    36502246.914 8 149470534.919 8        49.100    36502245.969 8 143242582.604 8        49.400
J04  38567209.034 7 202671977.784 7        43.700    38567208.049 7 202672093.762 7        47.500    38567205.667 7 202672059.155 7        46.300    38567223.998 7 157926349.194 7        47.600    38567223.085 8 151346073.279 8        48.600
G10  21525489.683 7 113117204.372 7        47.500                                                    21525504.561 7  88143342.783 7        45.900    21525499.488 7  84470703.308 7        47.900
C25  23322696.367 7 122561628.120 7        45.000    23322711.408 7  91523356.182 7        45.800    23322698.362 7 121447439.978 7        43.900                                                    23322698.265 7  98686014.045 7        44.200    23322707.064 7  93910913.599 7        42.600
C33  23406172.672 7 123000428.265 7        47.100    23406203.512 7  91850947.375 7        46.800    23406174.435 7 121882102.188 7        46.100                                                    23406180.925 7  99039220.534 7        44.600    23406200.515 7  94247051.005 7        43.700
C42  23019320.870 7 120967273.241 7        47.000    23019339.783 8  90332738.866 8        48.400    23019321.927 7 119867575.286 7        45.300                                                    23019326.770 7  97402213.573 7        45.500    23019336.870 7  92689234.912 7        45.900
I03  41296119.709 7 162054765.146 7        47.900
G32
G12  22498324.494 7 118229591.647 7        42.800                                                    22498346.087 7  92127214.453 7        44.100
R07  21195950.768 7 113463605.541 7        47.700    21195949.390 7 113463738.555 7        46.300    21195960.830 7  88249636.537 7        44.800    21195960.731 7  88249490.532 7        45.100
R22  22045053.235 7 117677910.909 7        43.500    22045053.712 7 117677932.929 7        42.600    22045071.666 7  91527318.863 7        42.800    22045072.685 7  91527309.858 7        43.200
R10  20568770.014 7 109643175.038 7        44.700    20568769.146 7 109643172.037 7        44.100
G25  21729348.096 7 114188293.498 7        42.900                                                    21729374.142 7  88978151.053 7        43.300    21729373.651 8  85270752.320 8        49.600
G24  22893025.033 6 120303549.570 6        41.100                                                    22893045.692 7  93742945.067 7        43.000    22893043.551 7  89836993.160 7        45.400
E26  24912103.103 7 130913945.497 7        46.900    24912115.563 7  97760433.829 7        44.900    24912111.571 7 100310688.939 7        46.500    24912115.102 8  99035567.686 8        49.000    24912103.131 8 106261288.958 8        48.300
E07  24553412.222 7 129029023.937 7        47.200    24553422.846 7  96352872.655 7        47.100    24553419.359 7  98866412.128 7        47.500    24553422.863 8  97609649.695 8        49.700    24553409.375 8 104731322.825 8        50.700
E13  25075477.672 7 131772358.080 7        45.100    25075499.256 7  98401424.970 7        46.000    25075494.624 7 100968412.786 7        47.000    25075498.688 8  99684925.675 8        49.300    25075481.606 8 106958032.824 8        48.800
E02  26931608.901 6 141526604.752 6        41.900    26931629.986 7 105685551.172 7        44.400    26931624.745 7 108442543.598 7        45.200    26931629.220 8 107064056.682 8        48.000    26931614.646 7 114875495.481 7        45.800
E30  25384653.272 7 133397325.022 7        47.000    25384674.975 7  99615017.030 7        47.100    25384669.710 7 102213643.418 7        47.400    25384674.446 8 100914235.021 8        49.800    25384657.330 8 108277070.309 8        49.300
E27  26674725.386 6 140176630.975 6        41.300    26674749.797 6 104677550.897 6        39.500    26674745.411 6 107408263.278 6        41.500    26674749.108 7 106042685.887 7        44.200    26674732.889 6 113779722.150 6        40.800
E08  26058856.344 7 136940121.941 7        43.000    26058872.954 7 102260483.249 7        45.000    26058868.619 7 104928136.835 7        45.900    26058872.462 8 103594318.344 8        48.300    26058857.851 7 111152653.225 7        46.400
> 2024 10 17  4 11 30.0000000  0 44       0.000000000000
C59                                                                                                  36927059.124 7 192288808.903 7        42.200                                                    36927043.850 7 156250313.373 7        44.600    36927052.661 7 148689837.551 7        43.700
C60                                                                                                  37415509.483 6 194832287.035 6        41.200                                                    37415491.647 7 158317103.160 7        43.600    37415502.012 7 150656630.747 7        43.300
C26  24479278.707 7 128639358.173 7        42.400    24479289.119 7  96061892.800 7        43.600    24479280.482 7 127469962.601 7        42.300                                                    24479278.221 7 103579751.965 7        43.000    24479285.851 6  98567836.084 6        41.100
C24  21514421.696 8 113059069.459 8        48.500    21514425.789 8  84427254.140 8        49.900    21514423.486 8 112031264.099 8        48.000                                                    21514415.957 7  91034561.704 7        45.700    21514422.468 7  86629685.908 7        46.900
C39  36191520.068 8 190187689.801 8        48.000    36191522.760 8 142023259.725 8        48.500    36191521.750 7 188458713.703 7        46.400                                                    36191512.336 7 153138142.890 7        45.500    36191519.184 7 145728206.942 7        44.400
C38  35887173.540 7 188588359.475 7        47.200    35887180.717 8 140828919.632 8        49.500    35887175.464 7 186873875.960 7        46.600                                                    35887169.020 7 151850332.969 7        45.800    35887176.947 7 144502709.119 7        44.900
C16                                                                                                  36248951.835 7 188757769.382 7        46.500    36248953.804 7 145959474.402 7        43.800    36248944.700 7 153381108.728 7        42.700
C14                                                                                                  22529116.009 7 117314994.226 7        45.400    22529115.599 7  90715449.807 7        47.200    22529107.114 7  95328126.638 7        45.500
C13                                                                                                  35892505.525 7 186901659.138 7        47.900    35892508.760 7 144524213.228 7        43.600    35892499.988 7 151872870.667 7        43.400
C06                                                                                                  36237320.913 7 188697204.446 7        45.200    36237319.048 7 145912631.095 7        45.500    36237310.968 7 153331943.757 7        42.500
C05                                                                                                  39224007.026 5 204249880.81015        31.700    39224014.184 6 157938830.00216        37.500    39224005.892 5 165969587.07815        35.800
C04                                                                                                  38464571.232 6 200294982.348 6        36.500    38464578.962 6 154880786.438 6        41.700    38464570.689 6 162756053.626 6        39.800
C03                                                                                                  36061260.304 6 187780381.486 6        40.600    36061260.406 7 145203671.416 7        44.100    36061254.037 7 152586890.359 7        42.800
C02                                                                                                  36895725.770 6 192125646.158 6        36.900    36895725.970 7 148563717.290 7        44.100    36895721.107 6 156117791.902 6        40.900
C01                                                                                                  37334239.633 6 194409090.588 6        40.200    37334245.773 7 150329428.118 7        44.500    37334238.393 6 157973279.040 6        40.200
R16  22689453.460 7 121202924.811 7        42.300    22689452.719 6 121202919.769 6        41.600    22689468.338 7  94268963.376 7        44.100    22689469.320 7  94268942.365 7        42.200
R06  21432958.314 5 114370265.715 5        35.200    21432956.722 5 114370301.703 5        33.200
I10  36495485.318 7 143216027.552 7        47.400
G28  22676721.731 6 119167028.325 6        40.700    22676719.821 7 119167035.329 7        44.400    22676743.297 7  92857519.155 7        44.600    22676747.181 7  88988491.913 7        47.100
J02  37102764.463 6 194976349.761 6        40.500    37102763.274 7 194976391.757 7        44.700    37102760.182 6 194976401.040 6        41.400    37102790.986 7 151929716.852 7        44.100    37102792.714 7 145599307.827 7        47.900
G18  23067530.389 6 121220486.365 6        40.500    23067528.812 7 121220389.355 7        42.400    23067554.388 7  94457430.887 7        42.000    23067557.446 7  90521712.954 7        45.200
G23  20137433.811 7 105822873.910 7        47.700    20137432.171 8 105823108.909 8        49.000    20137447.149 8  82459590.055 8        50.700    20137448.080 8  79023784.876 8        52.700
J03  36259571.549 6 190545200.808 6        40.500    36259570.418 7 190545246.800 7        44.200    36259567.032 6 190545273.510 6        40.400    36259597.954 7 148476846.923 7        44.900    36259598.497 7 142290302.001 7        43.200
J07  36502229.962 6 191820421.701 6        38.700    36502228.170 7 191820472.721 7        43.000    36502223.516 7 191820430.445 7        46.000    36502248.094 8 149470539.460 8        49.700    36502247.220 8 143242586.931 8        48.800
J04  38562032.527 7 202644775.182 7        43.600    38562031.554 7 202644891.181 7        47.700    38562029.496 7 202644856.552 7        45.800    38562047.841 7 157905152.255 7        47.500    38562046.520 8 151325759.508 8        48.800
G10  21511232.737 7 113042283.248 7        46.700                                                    21511247.528 7  88084962.650 7        45.900    21511242.301 7  84414755.656 7        47.200
C25  23306881.875 7 122478521.952 7        44.800    23306896.670 7  91461296.551 7        46.000    23306884.013 7 121365089.332 7        44.700                                                    23306883.544 7  98619097.514 7        43.500    23306892.457 7  93847235.012 7        42.500
C33  23397009.237 7 122952273.637 7        47.000    23397040.190 7  91814987.734 7        47.300    23397010.936 7 121834385.360 7        45.600                                                    23397017.379 7  99000446.672 7        45.100    23397036.632 7  94210153.295 7        43.000
C42  23021053.193 7 120976374.405 7        47.100    23021071.945 8  90339534.924 8        48.800    23021054.382 7 119876593.706 7        45.700                                                    23021058.974 7  97409541.607 7        45.300    23021068.660 7  92696208.301 7        45.800
I03  41285979.495 7 162014971.943 7        47.400
G32
G12  22494969.592 7 118211957.454 7        43.300                                                    22494990.037 7  92113473.622 7        43.600
R07  21188343.767 7 113422884.420 7        47.300    21188342.342 7 113423017.434 7        46.000    21188353.933 7  88217964.533 7        45.700    21188353.806 7  88217818.542 7        45.000
R22  22055786.283 7 117735197.891 7        43.000    22055786.161 7 117735219.884 7        42.600    22055803.946 7  91571874.873 7        42.500    22055805.068 7  91571865.876 7        42.700
R10  20550261.463 7 109544514.547 7        44.900    20550260.736 7 109544511.546 7        43.500
G25  21715320.054 7 114114575.228 7        44.300                                                    21715345.609 7  88920708.380 7        44.000    21715345.283 8  85215703.094 8        48.800
G24  22911715.414 7 120401765.023 7        42.300                                                    22911735.607 6  93819476.346 6        39.500    22911733.913 7  89910335.579 7        46.500
E26  24913045.734 7 130918900.862 7        45.500    24913058.772 7  97764134.082 7        45.300    24913054.716 7 100314485.743 7        46.100    24913058.275 8  99039316.214 8        48.200    24913046.750 8 106265311.021 8        48.600
E07  24553296.885 7 129028417.510 7        47.100    24553307.479 7  96352419.715 7        46.600    24553303.997 7  98865947.389 7        47.400    24553307.545 8  97609190.854 8        49.800    24553293.702 8 104730830.529 8        50.700
E13  25089471.909 7 131845898.785 7        44.200    25089493.885 7  98456341.335 7        45.400    25089489.086 7 101024761.804 7        47.100    25089493.370 8  99740558.367 8        48.900    25089476.023 8 107017724.689 8        48.800
E02  26936058.550 7 141549989.702 7        42.900    26936080.510 7 105703013.930 7        44.300    26936074.694 7 108460461.921 7        44.800    26936079.332 7 107081747.226 7        47.300    26936064.213 7 114894476.789 7        45.100
E30  25376598.587 7 133354995.725 7        46.300    25376619.958 7  99583407.629 7        46.900    25376614.884 7 102181209.404 7        47.300    25376619.326 8 100882213.316 8        49.800    25376602.420 8 108242712.217 8        49.600
E27  26659552.201 6 140096894.978 6        41.400    26659576.607 6 104618007.857 6        40.900    26659571.963 6 107347166.941 6        41.100    26659575.792 7 105982366.196 7        43.800    26659559.981 6 113715001.423 6        41.900
E08  26064515.099 7 136969848.553 7        43.700    26064529.633 7 102282681.395 7        45.200    26064525.366 7 104950914.118 7        46.200    26064529.521 8 103616806.051 8        48.400    26064514.319 7 111176781.776 7        46.300
> 2024 10 17  4 12  0.0000000  0 44       0.000000000000
C59                                                                                                  36927218.115 7 192289635.876 7        42.200                                                    36927202.783 7 156250985.245 7        43.500    36927211.571 7 148690476.877 7        43.900
C60                                                                                                  37415637.688 6 194832955.079 6        41.300                                                    37415620.137 7 158317645.881 7        42.800    37415630.567 7 150657147.159 7        43.600
C26  24493677.566 7 128715023.579 7        42.300    24493688.153 7  96118395.924 7        44.300    24493679.043 7 127544940.094 7        42.300                                                    24493676.841 7 103640677.136 7        42.500    24493684.710 6  98625813.222 6        40.900
C24  21513839.232 8 113056008.017 8        49.000    21513842.945 8  84424967.949 8        49.500    21513840.946 8 112028230.494 8        48.100                                                    21513833.306 7  91032096.615 7        44.900    21513839.885 7  86627340.086 7        47.100
C39  36194081.061 8 190201148.319 8        48.100    36194083.710 8 142033309.810 8        48.400    36194082.874 7 188472049.865 7        46.700                                                    36194073.523 7 153148979.549 7        45.000    36194080.358 7 145738519.224 7        44.600
C38  35887813.242 7 188591720.760 7        47.400    35887820.340 8 140831429.495 8        49.100    35887815.086 7 186877206.678 7        46.800                                                    35887808.673 7 151853039.320 7        44.900    35887816.827 7 144505284.486 7        45.000
C16                                                                                                  36251062.499 7 188768760.570 7        46.900    36251064.479 7 145967973.402 7        44.700    36251055.573 6 153390039.897 6        41.500
C14                                                                                                  22525106.883 7 117294115.945 7        45.300    22525106.207 7  90699305.267 7        47.900    22525097.715 7  95311161.226 7        45.300
C13                                                                                                  35889512.342 7 186886072.682 7        47.200    35889515.600 7 144512160.695 7        44.100    35889506.848 7 151860205.317 7        42.100
C06                                                                                                  36238249.174 7 188702038.551 7        45.100    36238247.429 7 145916369.047 7        46.500    36238239.398 7 153335871.789 7        42.100
C05                                                                                                  39223917.165 5                        32.300    39223924.793 6                        37.200    39223916.143 5                        34.600
C04                                                                                                  38464815.675 6 200296254.010 6        36.700    38464823.481 7 154881769.601 7        43.700    38464814.968 6 162757086.822 6        39.500
C03                                                                                                  36061411.283 6 187781169.500 6        40.600    36061411.922 7 145204280.628 7        44.500    36061405.473 6 152587530.574 6        41.600
C02                                                                                                  36895761.493 6 192125832.015 6        37.000    36895762.356 7 148563860.847 7        44.300    36895756.925 6 156117942.798 6        40.000
C01                                                                                                  37334395.343 6 194409900.924 6        40.200    37334401.277 7 150330054.582 7        44.900    37334394.005 6 157973937.385 6        39.900
R16  22708920.667 6 121306916.849 6        41.300    22708919.976 6 121306911.865 6        40.100    22708936.502 7  94349845.927 7        44.700    22708937.125 6  94349824.915 6        41.800
R06  21435052.172 5 114381435.188 5        32.900    21435049.540 5 114381471.171 5        33.100
I10  36495152.524 8 143214719.086 8        48.100
G28  22662803.047 7 119093890.773 7        43.000    22662801.748 7 119093897.784 7        44.400    22662825.468 7  92800528.993 7        44.300    22662829.246 7  88933876.390 7        47.200
J02  37102681.903 6 194975916.073 6        39.800    37102680.945 7 194975958.085 7        44.700    37102678.411 6 194975967.351 6        40.200    37102708.768 7 151929378.936 7        45.400    37102709.887 8 145598983.989 8        48.300
G18  23086091.769 6 121318029.289 6        39.700    23086090.458 6 121317932.284 6        41.500    23086115.845 6  94533438.264 6        41.600    23086119.337 7  90594553.312 7        44.600
G23  20137135.283 7 105821305.833 7        47.800    20137133.784 8 105821540.835 8        48.900    20137148.624 8  82458367.998 8        50.300    20137149.952 8  79022613.700 8        52.700
J03  36262146.899 6 190558734.238 6        41.700    36262145.865 7 190558780.249 7        44.100    36262142.397 7 190558806.937 7        42.300    36262173.341 7 148487392.480 7        44.500    36262173.837 7 142300408.156 7        43.800
J07  36502231.134 6 191820428.065 6        39.400    36502229.661 7 191820479.075 7        43.000    36502224.718 7 191820436.803 7        46.000    36502249.657 8 149470544.292 8        49.900    36502248.482 8 143242591.543 8        49.400
J04  38556847.421 7 202617523.941 7        43.500    38556845.979 7 202617639.940 7        47.400    38556843.874 7 202617605.311 7        45.900    38556862.055 7 157883917.395 7        47.600    38556860.946 8 151305409.407 8        49.100
G10  21497020.285 7 112967598.606 7        47.600                                                    21497035.748 7  88026766.795 7        46.500    21497030.495 8  84358984.616 8        48.200
C25  23291114.758 7 122395668.558 7        43.900    23291130.133 7  91399425.673 7        46.300    23291117.493 7 121282989.169 7        44.500                                                    23291116.884 7  98552384.506 7        42.500    23291125.715 7  93783750.100 7        42.000
C33  23387849.794 7 122904140.314 7        46.800    23387880.451 7  91779043.964 7        47.200    23387851.596 7 121786689.581 7        45.800                                                    23387857.918 7  98961689.927 7        44.600    23387877.212 7  94173271.852 7        43.400
C42  23022818.758 7 120985652.838 7        47.000    23022837.866 8  90346463.340 8        48.600    23022819.917 7 119885787.758 7        46.000                                                    23022824.935 7  97417012.349 7        45.000    23022834.241 7  92703317.499 7        45.600
I03  41275840.244 7 161975182.973 7        47.400
G32
G12  22491709.080 7 118194827.289 7        43.500                                                    22491730.675 7  92100125.546 7        45.100
R07  21180733.621 7 113382148.929 7        47.600    21180732.749 7 113382281.937 7        45.800    21180744.370 7  88186281.358 7        45.800    21180743.874 7  88186135.361 7        44.300
R22  22066603.959 7 117792942.670 7        43.600    22066604.464 7 117792964.674 7        42.100    22066622.661 6  91616786.931 6        41.000    22066622.530 6  91616777.920 6        41.000
R10  20531847.915 7 109446355.476 7        46.300    20531845.877 7 109446352.482 7        43.600
G25  21701351.661 7 114041170.909 7        42.900                                                    21701376.655 7  88863510.345 7        44.200    21701376.816 8  85160888.349 8        48.700
G24  22930423.652 6 120500077.358 6        41.100                                                    22930443.834 7  93896083.149 7        42.600    22930442.165 7  89983750.349 7        45.300
E26  24914068.060 7 130924269.772 7        46.000    24914080.556 7  97768143.106 7        44.800    24914076.468 7 100318599.346 7        45.600    24914080.027 8  99043377.528 8        48.300    24914068.723 8 106269668.729 8        48.900
E07  24553175.466 7 129027780.965 7        47.000    24553186.446 7  96351944.263 7        47.100    24553182.936 7  98865459.552 7        47.100    24553186.520 8  97608709.201 8        49.400    24553172.695 8 104730313.777 8        50.300
E13  25103501.406 7 131919622.153 7        44.900    25103522.973 7  98511394.122 7        45.100    25103518.355 7 101081250.785 7        46.800    25103522.768 8  99796329.257 8        48.900    25103505.613 8 107077564.815 8        49.000
E02  26940578.453 6 141573745.237 6        41.200    26940601.077 7 105720753.390 7        44.800    26940595.673 7 108478664.172 7        44.700    26940600.143 8 107099718.077 8        48.200    26940585.505 7 114913758.836 7        45.100
E30  25368597.181 7 133312949.736 7        46.200    25368618.759 7  99552009.786 7        47.000    25368613.714 7 102148992.479 7        46.700    25368618.055 8 100850405.931 8        50.000    25368601.344 8 108208584.087 8        49.500
E27  26644373.778 6 140017133.471 6        41.800    26644398.612 7 104558445.775 7        42.400    26644393.549 6 107286051.046 6        41.800    26644397.638 7 105922027.205 7        45.100    26644381.639 7 113650259.985 7        42.600
E08  26070160.932 7 136999522.575 7        43.500    26070176.662 7 102304840.265 7        45.100    26070173.044 7 104973651.076 7        46.500    26070176.601 8 103639253.963 8        48.400    26070161.794 7 111200867.605 7        46.700
> 2024 10 17  4 12 30.0000000  0 44       0.000000000000
C59                                                                                                  36927377.237 7 192290465.159 7        42.000                                                    36927362.144 7 156251658.989 7        44.100    36927371.018 7 148691117.992 7        43.900
C60                                                                                                  37415766.678 6 194833625.542 6        41.300                                                    37415749.048 7 158318190.554 7        43.500    37415759.471 7 150657665.445 7        43.600
C26  24508127.560 7 128790960.207 7        42.800    24508138.607 7  96175101.628 7        43.900    24508129.249 7 127620186.394 7        44.500                                                    24508127.050 7 103701820.766 7        43.000    24508135.369 6  98683998.244 6        40.700
C24  21513349.133 8 113053433.022 8        49.200    21513352.873 8  84423045.014 8        50.000    21513350.998 8 112025678.883 8        48.200                                                    21513343.382 7  91030023.190 7        45.800    21513350.006 7  86625366.978 7        47.200
C39  36196653.074 8 190214662.945 8        48.200    36196655.482 8 142043401.812 8        48.700    36196654.475 7 188485441.639 7        46.600                                                    36196645.475 7 153159861.393 7        45.100    36196652.290 7 145748874.510 7        44.700
C38  35888481.462 7 188595231.790 7        47.400    35888488.782 8 140834051.196 8        49.500    35888483.377 7 186880685.790 7        46.100                                                    35888476.857 7 151855866.260 7        45.100    35888485.072 7 144507974.600 7        45.200
C16                                                                                                  36253187.626 7 188779827.034 7        46.500    36253190.006 7 145976530.604 7        44.100    36253180.816 7 153399032.229 7        42.500
C14                                                                                                  22521119.972 7 117273354.117 7        46.300    22521119.166 7  90683250.791 7        47.300    22521110.775 7  95294290.450 7        44.700
C13                                                                                                  35886542.480 7 186870606.533 7        46.900    35886545.909 7 144500201.188 7        44.200    35886536.848 7 151847637.713 7        43.500
C06                                                                                                  36239195.064 7 188706963.033 7        45.400    36239193.180 7 145920176.881 7        46.000    36239185.046 7 153339873.267 7        42.900
C05                                                                                                  39223827.939 5 204248946.14215        32.100    39223834.823 6 157938106.87816        37.500    39223826.786 6 165968827.27316        36.000
C04                                                                                                  38465060.091 6 200297526.787 6        36.500    38465068.158 7 154882753.620 7        43.000    38465059.734 6 162758120.920 6        40.400
C03                                                                                                  36061563.015 6 187781958.550 6        40.500    36061563.448 7 145204890.636 7        44.100    36061557.048 7 152588171.640 7        42.200
C02                                                                                                  36895797.767 6 192126020.495 6        37.000    36895798.598 7 148564006.431 7        44.300    36895793.308 6 156118095.823 6        40.500
C01                                                                                                  37334551.230 6 194410712.546 6        39.900    37334557.366 7 150330682.050 7        45.000    37334550.015 6 157974596.788 6        40.700
R16  22728466.799 7 121411325.936 7        43.200    22728465.849 6 121411320.989 6        40.900    22728481.799 7  94431052.771 7        44.500    22728482.793 7  94431031.779 7        42.300
R06  21437178.855 5 114392784.244 5        35.700    21437177.373 5 114392820.236 5        33.800
I10  36494818.713 8 143213408.740 8        48.100
G28  22648950.187 7 119021092.843 7        43.600    22648948.785 7 119021099.848 7        44.700    22648972.469 7  92743803.469 7        45.600    22648976.076 7  88879514.460 7        47.300
J02  37102606.687 6 194975521.012 6        40.900    37102605.484 7 194975563.016 7        44.300    37102602.405 6 194975572.288 6        39.500    37102633.304 7 151929071.109 7        44.200    37102634.925 8 145598688.998 8        48.300
G18  23104672.716 6 121415672.825 6        38.300    23104671.166 6 121415575.839 6        40.500    23104697.082 6  94609524.043 6        40.200    23104700.226 7  90667468.832 7        43.900
G23  20136931.856 7 105820236.611 7        45.900    20136930.396 8 105820471.617 8        49.000    20136945.358 8  82457534.665 8        50.400    20136946.527 8  79021815.051 8        52.900
J03  36264730.379 6 190572310.230 6        40.400    36264729.140 7 190572356.231 7        44.100    36264725.877 6 190572382.932 6        41.800    36264756.681 7 148497971.175 7        44.900    36264757.076 7 142310546.109 7        43.400
J07  36502232.442 6 191820434.736 6        40.400    36502231.346 7 191820485.753 7        43.000    36502226.099 7 191820443.485 7        46.200    36502250.948 8 149470549.390 8        49.900    36502249.820 8 143242596.397 8        49.700
J04  38551652.301 7 202590224.303 7        43.700    38551651.208 7 202590340.286 7        47.300    38551649.027 7 202590305.673 7        45.900    38551667.232 8 157862644.823 8        48.200    38551665.970 8 151285023.174 8        49.100
G10  21482853.503 8 112893153.143 8        48.200                                                    21482869.100 7  87968757.313 7        45.900    21482864.033 8  84303392.194 8        48.200
C25  23275396.403 7 122313069.853 7        44.200    23275412.279 7  91337744.976 7        46.400    23275399.190 7 121201141.347 7        43.800                                                    23275398.908 7  98485876.575 7        43.500    23275407.487 6  93720460.319 6        41.700
C33  23378694.394 7 122856029.470 7        47.000    23378725.793 7  91743117.003 7        47.700    23378696.246 7 121739016.126 7        45.900                                                    23378702.489 7  98922951.303 7        44.700    23378721.698 7  94136407.681 7        42.600
C42  23024618.574 7 120995109.743 7        47.200    23024637.611 8  90353525.064 8        49.000    23024619.942 7 119895158.680 7        45.600                                                    23024624.502 7  97424626.807 7        44.900    23024634.248 7  92710563.465 7        45.400
I03  41265702.230 7 161935398.340 7        47.600
G32
G12  22488545.377 7 118178202.781 7        43.700                                                    22488566.796 7  92087171.460 7        45.100
R07  21173121.299 7 113341400.406 7        46.900    21173119.552 7 113341533.414 7        45.800    21173132.628 7  88154588.077 7        45.900    21173131.787 7  88154442.072 7        44.500
R22  22077507.638 7 117851141.325 7        42.300    22077506.682 6 117851163.330 6        41.700    22077524.958 6  91662052.003 6        40.500    22077526.170 6  91662042.992 6        40.400
R10  20513527.552 7 109348702.046 7        44.200    20513525.863 7 109348699.082 7        43.200
G25  21687442.812 7 113968083.764 7        44.100                                                    21687469.390 7  88806559.475 7        43.800    21687468.168 8  85106310.462 8        48.000
G24  22949150.269 6 120598484.175 6        41.000                                                    22949171.239 6  93972763.434 6        41.100    22949168.571 7  90057235.656 7        46.300
E26  24915168.625 7 130930051.682 7        46.200    24915180.881 7  97772460.498 7        44.500    24915177.151 7 100323029.390 7        46.300    24915180.410 8  99047751.246 8        48.000    24915169.256 8 106274361.667 8        48.900
E07  24553048.754 7 129027113.900 7        46.800    24553059.486 7  96351446.047 7        46.600    24553056.113 7  98864948.352 7        47.600    24553059.663 8  97608204.491 8        49.800    24553045.893 8 104729772.277 8        50.500
E13  25117565.190 7 131993526.033 7        45.400    25117586.635 7  98566581.758 7        45.200    25117582.272 7 101137878.120 7        46.700    25117586.424 8  99852236.736 8        48.900    25117569.246 8 107137551.485 8        48.800
E02  26945169.695 6 141597871.021 6        41.000    26945191.931 7 105738769.348 7        43.700    26945186.972 7 108497150.111 7        45.200    26945191.148 7 107117969.036 7        47.300    26945176.730 7 114933341.416 7        46.100
E30  25360650.426 7 133271188.765 7        46.300    25360671.634 7  99520824.790 7        47.200    25360666.840 7 102116993.931 7        47.500    25360670.959 8 100818814.162 8        49.900    25360654.577 8 108174687.278 8        49.600
E27  26629191.326 7 139937348.326 7        42.900    26629216.040 7 104498866.011 7        42.200    26629210.792 7 107224917.038 7        42.600    26629215.030 7 105861670.326 7        45.900    26629198.770 7 113585499.366 7        43.200
E08  26075798.940 7 137029144.347 7        44.400    26075813.940 7 102326960.131 7        45.200    26075810.135 7 104996348.015 7        46.500    26075813.650 8 103661662.369 8        48.800    26075799.289 7 111224911.064 7        47.200
> 2024 10 17  4 13  0.0000000  0 44       0.000000000000
C59                                                                                                  36927537.287 7 192291297.481 7        42.300                                                    36927522.119 7 156252335.201 7        43.900    36927530.955 7 148691761.457 7        43.900
C60                                                                                                  37415896.311 6 194834299.192 6        41.400                                                    37415878.493 7 158318737.814 7        43.400    37415888.929 7 150658186.186 7        43.600
C26  24522628.950 7 128867166.678 7        43.000    24522640.618 7  96232008.853 7        43.400    24522631.112 7 127695700.056 7        43.400                                                    24522628.763 7 103763181.668 7        42.500    24522636.774 6  98742390.020 6        40.200
C24  21512951.883 8 113051345.051 8        49.300    21512955.524 8  84421485.763 8        49.900    21512953.770 8 112023609.882 8        48.200                                                    21512946.053 7  91028341.928 7        45.200    21512952.649 7  86623767.050 7        47.100
C39  36199235.479 8 190228233.861 8        48.700    36199238.043 8 142053535.846 8        48.300    36199237.207 7 188498889.178 7        45.800                                                    36199227.947 7 153170788.547 7        44.900    36199234.920 7 145759272.906 7        44.600
C38  35889178.439 7 188598893.566 7        47.400    35889185.555 8 140836785.453 8        49.400    35889180.182 7 186884314.236 7        45.700                                                    35889173.969 7 151858814.550 7        45.200    35889182.166 7 144510780.189 7        45.300
C16                                                                                                  36255327.291 7 188790968.953 7        47.000    36255329.651 7 145985146.164 7        44.200    36255320.495 6 153408085.880 6        41.900
C14                                                                                                  22517155.838 7 117252710.735 7        46.200    22517155.229 7  90667287.899 7        47.000    22517146.595 7  95277515.916 7        45.500
C13                                                                                                  35883595.627 7 186855261.859 7        47.800    35883598.865 7 144488335.607 7        43.800    35883590.021 7 151835168.824 7        43.000
C06                                                                                                  36240158.191 7 188711978.082 7        45.500    36240156.504 7 145924054.749 7        46.200    36240148.298 7 153343948.339 7        42.500
C05                                                                                                  39223738.320 5 204248481.38415        32.300    39223746.171 6 157937747.30216        37.800    39223737.740 5 165968449.46515        35.700
C04                                                                                                  38465305.156 6 200298801.318 6        37.300    38465312.930 7 154883738.994 7        42.400    38465304.632 6 162759156.437 6        40.400
C03                                                                                                  36061714.963 6 187782749.297 6        40.800    36061715.731 7 145205501.959 7        43.600    36061709.119 7 152588814.079 7        42.000
C02                                                                                                  36895834.909 6 192126212.397 6        37.200    36895835.584 7 148564154.666 7        43.800    36895830.288 6 156118251.634 6        40.600
C01                                                                                                  37334707.499 6 194411526.197 6        40.000    37334713.822 7 150331311.088 7        44.300    37334706.476 6 157975257.834 6        40.800
R16  22748090.553 7 121516149.211 7        43.000    22748089.095 6 121516144.219 6        41.800    22748105.904 7  94512581.791 7        44.300    22748106.263 7  94512560.789 7        43.100
R06  21439339.926 5 114404315.843 5        35.100    21439339.033 5 114404351.891 5        34.100
I10  36494484.526 8 143212097.043 8        48.300
G28  22635162.514 6 118948636.162 6        41.300    22635160.596 7 118948643.166 7        44.300    22635184.036 7  92687343.900 7        44.900    22635187.706 7  88825407.409 7        46.900
J02  37102539.688 6 194975165.564 6        40.900    37102538.264 7 194975207.554 7        44.200    37102535.289 6 194975216.840 6        40.800    37102565.765 7 151928794.133 7        44.800    37102567.391 7 145598423.581 7        47.900
G18  23123273.039 6 121513414.652 6        37.700    23123270.637 6 121513317.622 6        39.300    23123296.919 6  94685686.370 6        40.500    23123299.913 7  90740457.725 7        43.700
G23  20136823.620 7 105819668.236 7        46.900    20136822.464 8 105819903.236 8        49.000    20136837.456 8  82457091.609 8        50.300    20136838.600 8  79021390.419 8        52.500
J03  36267322.044 6 190585928.991 6        41.600    36267320.955 7 190585974.996 7        44.200    36267317.449 7 190586001.693 7        42.200    36267348.380 7 148508583.238 7        44.900    36267348.741 7 142320715.991 7        43.200
J07  36502233.672 6 191820442.514 6        40.400    36502232.760 7 191820493.514 7        42.800    36502227.594 7 191820451.256 7        46.000    36502252.444 8 149470555.324 8        49.500    36502251.544 8 143242602.058 8        49.300
J04  38546448.265 7 202562877.199 7        43.000    38546447.495 7 202562993.197 7        47.800    38546444.906 7 202562958.569 7        46.000    38546463.620 7 157841335.269 7        47.600    38546462.272 8 151264601.490 8        49.100
G10  21468733.515 7 112818950.378 7        47.200                                                    21468748.813 7  87910936.940 7        47.000    21468744.028 8  84247981.005 8        48.800
C25  23259727.764 7 122230728.545 7        44.100    23259742.712 7  91276256.499 7        45.500    23259729.886 7 121119548.592 7        44.300                                                    23259729.730 7  98419575.913 7        43.200    23259738.443 7  93657367.760 7        42.600
C33  23369543.695 7 122807943.046 7        46.800    23369574.909 7  91707208.288 7        47.100    23369545.890 7 121691366.847 7        46.300                                                    23369552.216 7  98884232.348 7        44.300    23369571.371 7  94099562.196 7        43.000
C42  23026452.410 7 121004747.026 7        47.700    23026471.999 8  90360721.483 8        48.800    23026454.012 7 119904708.349 7        45.200                                                    23026458.371 7  97432386.506 7        44.800    23026468.439 7  92717947.638 7        45.700
I03  41255565.205 7 161895618.538 7        47.700
G32
G12  22485478.599 7 118162086.468 7        43.200                                                    22485499.987 7  92074613.357 7        44.900
R07  21165507.409 7 113300641.111 7        47.000    21165505.765 7 113300774.126 7        45.500    21165517.818 7  88122886.374 7        45.800    21165517.566 7  88122740.383 7        45.100
R22  22088494.467 6 117909790.685 6        39.400    22088492.542 6 117909812.686 6        38.900    22088513.630 6  91707667.550 6        39.900    22088513.617 6  91707658.577 6        40.400
R10  20495303.388 7 109251559.493 7        43.900    20495302.012 7 109251556.492 7        42.700
G25  21673595.934 7 113895317.724 7        44.400                                                    21673621.887 7  88749858.794 7        44.300    21673620.837 8  85051972.310 8        48.100
G24  22967894.594 6 120696983.684 6        41.200                                                    22967914.657 7  94049516.130 7        42.500    22967912.529 7  90130790.176 7        44.900
E26  24916347.292 7 130936246.766 7        45.500    24916359.809 7  97777086.466 7        45.300    24916356.497 7 100327776.084 7        47.000    24916359.656 8  99052437.577 8        48.600    24916347.988 8 106279389.988 8        48.200
E07  24552915.856 7 129026416.747 7        46.800    24552926.907 7  96350925.348 7        46.900    24552923.389 7  98864414.086 7        47.300    24552927.150 8  97607677.019 8        49.600    24552913.189 8 104729206.337 8        50.300
E13  25131663.018 7 132067609.056 7        45.000    25131684.643 7  98621903.133 7        45.200    25131680.038 7 101194642.721 7        46.800    25131684.254 8  99908279.730 8        49.100    25131667.391 8 107197683.562 8        48.700
E02  26949830.844 6 141622367.579 6        38.100    26949853.075 7 105757062.182 7        43.500    26949848.601 7 108515920.116 7        44.700    26949852.331 7 107136500.439 7        47.300    26949838.275 7 114953224.906 7        46.300
E30  25352757.916 7 133229715.151 7        46.200    25352778.985 7  99489854.394 7        46.700    25352774.723 7 102085215.584 7        47.500    25352778.626 8 100787439.786 8        49.600    25352762.295 8 108141023.735 8        49.900
E27  26614004.884 7 139857542.172 7        43.400    26614029.460 7 104439270.578 7        42.800    26614024.109 7 107163766.934 7        43.700    26614028.418 7 105801297.557 7        46.200    26614012.176 7 113520721.697 7        43.700
E08  26081424.856 7 137058715.022 7        43.300    26081441.515 7 102349041.826 7        44.900    26081437.601 7 105019005.791 7        46.200    26081441.002 8 103684032.104 8        48.700    26081427.185 7 111248913.014 7        47.800
> 2024 10 17  4 13 30.0000000  0 44       0.000000000000
C59                                                                                                  36927697.862 7 192292132.455 7        42.300                                                    36927682.566 7 156253013.576 7        43.900    36927691.401 7 148692406.972 7        43.900
C60                                                                                                  37416026.227 6 194834975.539 6        41.400                                                    37416008.580 7 158319287.263 7        43.400    37416019.021 7 150658709.004 7        43.600
C26  24537182.024 7 128943640.560 7        42.500    24537192.995 7  96289115.754 7        43.600    24537183.867 7 127771478.688 7        42.500                                                    24537181.493 7 103824757.872 7        42.300    24537189.329 6  98800986.690 6        39.500
C24  21512646.936 8 113049743.570 8        49.100    21512651.266 8  84420289.795 8        49.600    21512648.856 8 112022022.973 8        48.200                                                    21512641.437 7  91027052.404 7        45.500    21512647.927 7  86622539.906 7        47.000
C39  36201828.501 8 190241860.118 8        48.300    36201831.014 8 142063711.189 8        48.800    36201830.158 7 188512391.555 7        46.100                                                    36201821.021 7 153181760.264 7        45.500    36201828.037 7 145769713.715 7        44.600
C38  35889904.361 7 188602705.886 7        47.700    35889911.408 8 140839632.137 8        49.100    35889905.995 7 186888091.907 7        45.600                                                    35889899.636 7 151861884.092 7        45.300    35889907.954 7 144513701.160 7        45.400
C16                                                                                                  36257481.451 7 188802185.453 7        47.000    36257483.619 7 145993819.392 7        43.900    36257474.607 7 153417200.136 7        42.600
C14                                                                                                  22513214.283 7 117232186.921 7        45.600    22513213.962 7  90651417.484 7        47.600    22513205.184 7  95260838.548 7        45.100
C13                                                                                                  35880672.434 7 186840038.886 7        47.500    35880675.738 7 144476564.129 7        43.900    35880666.617 7 151822798.813 7        43.200
C06                                                                                                  36241138.769 7 188717082.908 7        44.900    36241136.932 7 145928002.055 7        46.000    36241128.589 7 153348096.371 7        42.600
C05                                                                                                  39223649.460 5 204248018.14015        31.700    39223657.308 6 157937388.88716        37.900    39223648.974 5 165968072.87515        35.800
C04                                                                                                  38465550.736 6 200300077.269 6        36.500    38465558.322 7 154884725.482 7        42.900    38465549.714 6 162760193.125 6        40.200
C03                                                                                                  36061867.122 6 187783541.424 6        40.600    36061867.771 7 145206114.348 7        43.700    36061861.438 7 152589457.630 7        42.000
C02                                                                                                  36895872.393 6 192126407.096 6        36.900    36895873.048 7 148564305.047 7        43.400    36895867.871 6 156118409.703 6        40.400
C01                                                                                                  37334864.233 6 194412341.498 6        39.900    37334870.491 7 150331941.395 7        45.200    37334863.022 6 157975920.234 6        41.700
R16  22767789.969 7 121621382.251 7        42.100    22767787.423 6 121621377.252 6        40.600    22767806.095 7  94594429.521 7        44.600    22767806.262 7  94594408.532 7        42.300
R06  21441535.250 5 114416031.513 5        33.800    21441534.093 5 114416067.525 5        33.600
I10  36494150.094 8 143210783.709 8        48.000
G28  22621439.208 7 118876521.302 7        43.100    22621437.313 7 118876528.304 7        44.700    22621461.195 7  92631150.682 7        44.700    22621464.592 7  88771555.604 7        46.900
J02  37102479.264 6 194974849.553 6        39.700    37102477.809 7 194974891.546 7        43.600    37102474.794 6 194974900.824 6        40.000    37102505.551 7 151928547.917 7        43.600    37102507.144 8 145598187.616 8        48.600
G18  23141890.701 6 121611251.208 6        36.300    23141888.827 6 121611154.203 6        38.500    23141914.342 6  94761922.565 6        39.400    23141917.824 7  90813517.362 7        43.300
G23  20136811.433 7 105819601.568 7        46.300    20136810.018 8 105819836.557 8        49.300    20136825.135 8  82457039.464 8        50.300    20136826.020 8  79021340.409 8        52.300
J03  36269921.582 6 190599589.820 6        40.900    36269920.288 7 190599635.815 7        43.800    36269917.462 7 190599662.514 7        42.100    36269948.159 7 148519228.069 7        44.800    36269948.249 7 142330917.293 7        43.800
J07  36502236.402 6 191820450.947 6        40.800    36502234.295 7 191820501.950 7        43.000    36502229.457 7 191820459.696 7        47.100    36502254.061 8 149470561.783 8        49.600    36502253.274 8 143242608.233 8        49.900
J04  38541235.182 7 202535482.548 7        42.900    38541234.264 7 202535598.546 7        47.800    38541232.418 7 202535563.925 7        44.700    38541250.782 8 157819988.671 8        48.300    38541249.481 8 151244144.303 8        48.600
G10  21454659.677 8 112744992.683 8        48.000                                                    21454675.370 7  87853307.551 7        46.700    21454670.175 8  84192752.827 8        48.400
C25  23244107.429 7 122148646.211 7        43.900    23244123.042 7  91214961.408 7        45.800    23244110.219 7 121038212.479 7        44.100                                                    23244109.542 7  98353483.771 7        43.600    23244118.618 7  93594473.669 7        42.900
C33  23360397.937 7 122759881.845 7        46.800    23360429.228 7  91671318.364 7        47.100    23360399.911 7 121643742.552 7        45.800                                                    23360406.407 7  98845533.669 7        44.500    23360425.451 7  94062736.025 7        42.800
C42  23028321.023 7 121014565.591 7        47.500    23028340.881 8  90368053.260 8        49.500    23028322.359 7 119914437.649 7        45.800                                                    23028327.002 7  97440292.169 7        45.000    23028337.118 7  92725470.712 7        45.700
I03  41245429.721 8 161855843.219 8        48.100
G32
G12  22482508.377 7 118146479.325 7        44.300                                                    22482529.957 7  92062451.996 7        43.900
R07  21157891.280 7 113259872.085 7        47.000    21157889.917 7 113260005.101 7        45.700    21157902.069 7  88091177.125 7        45.800    21157901.730 7  88091031.128 7        45.300
R22  22099565.695 6 117968886.312 6        39.000    22099564.117 6 117968908.336 6        38.300    22099583.839 7  91753630.288 7        42.600    22099584.910 7  91753621.272 7        42.000
R10  20477176.110 7 109154931.151 7        44.000    20477174.768 7 109154928.163 7        42.900
G25  21659810.796 7 113822875.513 7        44.500                                                    21659836.487 7  88693410.462 7        44.700    21659835.668 8  84997876.041 8        48.400
G24  22986655.557 6 120795573.127 6        41.200                                                    22986675.129 6  94126338.793 6        38.900    22986673.774 7  90204411.857 7        45.000
E26  24917605.442 7 130942854.204 7        46.900    24917617.876 7  97782020.356 7        45.300    24917613.860 7 100332838.714 7        46.100    24917617.226 8  99057435.834 8        48.600    24917605.602 8 106284752.979 8        48.900
E07  24552777.604 7 129025688.835 7        47.200    24552788.409 7  96350381.667 7        46.600    24552784.825 7  98863856.242 7        47.300    24552788.677 8  97607126.251 8        49.800    24552774.922 8 104728615.430 8        50.600
E13  25145794.444 7 132141868.764 7        45.100    25145816.380 7  98677356.466 7        45.700    25145811.614 7 101251542.709 7        46.200    25145815.784 8  99964456.385 8        49.000    25145798.979 8 107257959.058 8        48.800
E02  26954563.101 6 141647234.074 6        39.200    26954585.096 7 105775631.282 7        43.400    26954580.532 7 108534973.613 7        44.900    26954584.103 7 107155311.747 7        47.500    26954569.732 7 114973408.737 7        44.600
E30  25344920.921 7 133188530.194 7        45.900    25344941.807 7  99459099.531 7        46.500    25344937.431 7 102053658.404 7        47.800    25344941.219 8 100756283.763 8        49.700    25344924.971 8 108107594.483 8        50.000
E27  26598814.405 7 139777716.484 7        44.100    26598838.904 7 104379660.583 7        43.400    26598833.699 7 107102601.888 7        43.700    26598838.045 7 105740910.027 7        46.800    26598821.875 7 113455928.182 7        44.400
E08  26087044.456 7 137088234.638 7        43.800    26087058.760 7 102371085.409 7        44.600    26087055.154 7 105041624.435 7        46.100    26087058.585 8 103706363.220 8        48.200    26087044.434 7 111272873.547 7        47.300
> 2024 10 17  4 14  0.0000000  0 44       0.000000000000
C59                                                                                                  36927858.445 7 192292969.306 7        42.300                                                    36927843.434 7 156253693.467 7        44.300    36927852.236 7 148693053.930 7        43.800
C60                                                                                                  37416156.554 6 194835653.858 6        41.400                                                    37416139.013 7 158319838.311 7        43.600    37416149.452 7 150659233.348 7        43.500
C26  24551784.995 7 129020378.993 7        42.200    24551795.936 7  96346420.187 7        43.000    24551787.478 7 127847519.457 7        42.900                                                    24551784.411 6 103886547.069 6        41.800    24551792.317 6  98859786.054 6        39.500
C24  21512434.985 8 113048627.746 8        48.900    21512439.089 8  84419456.492 8        50.300    21512436.835 8 112020917.293 8        48.500                                                    21512429.091 7  91026153.899 7        45.800    21512435.863 7  86621684.879 7        47.200
C39  36204431.973 8 190255540.389 8        48.400    36204434.521 8 142073926.869 8        48.700    36204433.449 7 188525947.457 7        46.200                                                    36204424.397 7 153192775.467 7        45.000    36204431.400 7 145780195.907 7        44.500
C38  35890658.653 7 188606668.365 7        47.900    35890665.521 8 140842590.949 8        48.800    35890659.796 7 186892018.364 7        46.000                                                    35890653.929 7 151865074.528 7        45.300    35890662.247 7 144516737.187 7        45.700
C16                                                                                                  36259649.593 7 188813475.251 7        47.000    36259652.152 7 146002549.291 7        44.100    36259642.763 7 153426373.949 7        42.100
C14                                                                                                  22509296.204 7 117211783.312 7        45.000    22509295.594 7  90635639.998 7        47.300    22509286.865 7  95244258.856 7        44.600
C13                                                                                                  35877772.390 7 186824937.434 7        47.100    35877775.643 7 144464886.615 7        43.800    35877766.598 7 151810527.552 7        43.200
C06                                                                                                  36242136.182 7 188722276.331 7        45.400    36242134.357 7 145932017.861 7        46.500    36242126.025 7 153352316.385 7        42.700
C05                                                                                                  39223560.545 5 204247555.707 5        31.900    39223568.514 6 157937031.098 6        38.000    39223560.403 5 165967696.945 5        35.400
C04                                                                                                  38465795.700 6 200301353.837 6        36.900    38465803.628 7 154885712.441 7        43.300    38465795.130 6 162761230.308 6        39.800
C03                                                                                                  36062019.559 6 187784334.145 6        40.800    36062020.302 7 145206727.177 7        43.900    36062013.708 7 152590101.668 7        42.000
C02                                                                                                  36895910.236 6 192126603.951 6        36.900    36895910.958 7 148564457.098 7        43.800    36895905.814 6 156118569.526 6        40.900
C01                                                                                                  37335020.860 6 194413157.628 6        39.900    37335027.282 7 150332572.349 7        45.000    37335020.006 6 157976583.293 6        41.400
R16  22787565.509 7 121727020.387 7        43.100    22787564.343 7 121727015.371 7        42.200    22787582.230 7  94676592.294 7        45.400    22787582.557 7  94676571.320 7        43.200
R06  21443765.030 5 114427932.421 5        33.900    21443765.024 5 114427968.407 5        33.200
I10  36493815.191 8 143209468.159 8        48.100
G28  22607781.083 7 118804748.523 7        43.400    22607779.352 7 118804755.520 7        44.000    22607803.185 7  92575223.990 7        44.300    22607806.375 7  88717959.236 7        47.000
J02  37102426.683 6 194974572.502 6        39.200    37102424.917 7 194974614.495 7        43.900    37102422.159 6 194974623.773 6        39.500    37102452.868 7 151928332.060 7        44.100    37102454.419 8 145597980.745 8        48.700
G18  23160525.676 6 121709178.502 6        36.100    23160524.488 6 121709081.485 6        38.000    23160549.724 6  94838229.450 6        39.800    23160552.929 7  90886644.813 7        42.000
G23  20136894.554 7 105820037.054 7        46.800    20136892.897 8 105820272.053 8        49.200    20136908.297 8  82457378.620 8        50.600    20136909.172 8  79021665.395 8        52.800
J03  36272528.539 6 190613291.606 6        41.100    36272527.578 7 190613337.584 7        44.200    36272524.647 7 190613364.309 7        42.000    36272555.083 7 148529904.810 7        44.700    36272555.498 7 142341149.189 7        43.500
J07  36502237.690 6 191820459.317 6        39.900    36502236.004 7 191820510.316 7        42.900    36502231.035 7 191820468.066 7        47.000    36502256.019 8 149470568.170 8        49.800    36502254.966 8 143242614.323 8        49.500
J04  38536013.472 7 202508039.855 7        42.600    38536012.365 7 202508155.845 7        47.500    38536009.948 7 202508121.225 7        45.700    38536028.665 8 157798604.624 8        48.200    38536027.294 8 151223651.228 8        48.800
G10  21440633.758 7 112671282.120 7        46.400                                                    21440648.723 7  87795870.714 7        46.800    21440643.941 8  84137709.184 8        48.400
C25  23228537.275 7 122066824.010 7        45.000    23228552.477 7  91153860.606 7        45.200    23228539.911 7 120957134.126 7        43.400                                                    23228539.270 7  98287601.083 7        43.800    23228548.015 7  93531778.905 7        42.200
C33  23351257.429 7 122711846.386 7        47.000    23351288.205 7  91635447.703 7        46.500    23351259.481 7 121596143.779 7        45.700                                                    23351265.894 7  98806855.745 7        44.400    23351284.908 7  94025929.589 7        43.400
C42  23030224.246 7 121024565.900 7        47.300    23030243.838 8  90375520.750 8        49.000    23030225.794 7 119924347.016 7        46.300                                                    23030230.283 7  97448344.155 7        44.600    23030240.283 7  92733133.027 7        45.500
I03  41235295.046 8 161816071.842 8        48.000
G32
G12  22479635.360 7 118131382.336 7        44.100                                                    22479657.290 7  92050688.173 7        44.000
R07  21150273.657 7 113219094.482 7        47.300    21150272.003 7 113219227.483 7        45.200    21150285.440 7  88059461.182 7        46.600    21150284.187 7  88059315.185 7        45.000
R22  22110719.626 6 118028423.751 6        41.800    22110719.167 6 118028445.743 6        41.100    22110739.059 7  91799936.566 7        43.300    22110739.066 7  91799927.577 7        42.500
R10  20459145.901 7 109058820.287 7        44.300    20459144.530 7 109058817.307 7        43.100
G25  21646087.914 6 113750759.681 6        41.700                                                    21646113.211 7  88637216.451 7        43.700    21646112.428 8  84944023.497 8        48.100
G24  23005433.698 6 120894249.269 6        41.400                                                    23005454.018 7  94203228.998 7        43.000    23005451.014 7  90278098.271 7        44.300
E26  24918940.956 7 130949872.665 7        45.600    24918953.458 7  97787261.162 7        44.200    24918949.573 7 100338216.258 7        45.500    24918952.873 8  99062745.003 8        48.300    24918941.622 8 106290449.610 8        48.900
E07  24552633.208 7 129024929.125 7        46.800    24552644.266 7  96349814.270 7        46.600    24552640.439 7  98863274.038 7        47.200    24552644.227 8  97606551.446 8        49.900    24552630.158 8 104727998.716 8        50.300
E13  25159958.763 7 132216302.273 7        44.900    25159980.559 7  98732939.595 7        45.900    25159976.168 7 101308575.862 7        46.000    25159980.298 8 100020764.537 8        48.800    25159962.587 8 107318375.633 8        48.400
E02  26959364.168 6 141672469.557 6        38.100    26959387.243 7 105794475.906 7        44.300    26959382.910 7 108554309.852 7        44.500    26959386.424 7 107174402.183 7        47.400    26959372.128 7 114993892.055 7        45.300
E30  25337138.408 7 133147634.742 7        46.600    25337159.410 7  99428560.866 7        46.200    25337154.732 7 102022323.057 7        47.900    25337158.953 8 100725346.764 8        50.000    25337142.583 8 108074400.223 8        50.200
E27  26583620.754 7 139697872.488 7        44.700    26583645.042 7 104320036.881 7        43.700    26583640.017 7 107041422.786 7        44.100    26583644.155 7 105680508.635 7        47.100    26583628.271 7 113391119.812 7        45.000
E08  26092651.241 7 137117702.843 7        43.100    26092666.556 7 102393090.595 7        44.100    26092662.920 7 105064203.705 7        45.500    26092666.455 8 103728655.442 8        48.300    26092652.403 7 111296792.330 7        47.600
> 2024 10 17  4 14 30.0000000  0 44       0.000000000000
C59                                                                                                  36928019.606 7 192293808.025 7        42.100                                                    36928004.669 7 156254374.878 7        44.300    36928013.517 7 148693702.335 7        43.700
C60                                                                                                  37416287.514 6 194836334.133 6        41.400                                                    37416269.745 7 158320390.951 7        44.200    37416280.236 7 150659759.205 7        43.500
C26  24566438.648 7 129097379.777 7        42.500    24566448.417 7  96403920.588 7        42.100    24566440.236 7 127923820.212 7        42.800                                                    24566437.403 7 103948547.549 7        42.600    24566445.302 6  98918786.452 6        38.900
C24  21512314.745 8 113047997.360 8        48.900    21512319.209 8  84418985.719 8        50.500    21512316.767 8 112020292.638 8        48.300                                                    21512309.226 7  91025646.281 7        46.300    21512316.067 7  86621201.817 7        47.400
C39  36207045.471 8 190269274.087 8        48.300    36207048.094 8 142084182.446 8        48.700    36207047.034 7 188539556.303 7        46.000                                                    36207037.893 7 153203833.694 7        45.800    36207044.930 7 145790719.036 7        44.600
C38  35891441.219 8 188610781.267 8        48.000    35891448.495 8 140845662.066 8        49.100    35891442.521 7 186896093.854 7        46.400                                                    35891436.723 7 151868386.061 7        45.600    35891445.110 7 144519888.446 7        45.600
C16                                                                                                  36261831.609 7 188824837.787 7        47.200    36261834.328 7 146011335.444 7        43.900    36261824.851 7 153435606.880 7        42.100
C14                                                                                                  22505400.927 7 117191501.291 7        45.600    22505400.812 7  90619956.537 7        47.500    22505391.941 7  95227777.959 7        45.300
C13                                                                                                  35874895.720 7 186809958.224 7        46.700    35874899.052 7 144453303.620 7        43.900    35874889.952 7 151798355.622 7        43.000
C06                                                                                                  36243150.423 7 188727557.833 7        46.000    36243148.815 7 145936101.784 7        46.200    36243140.354 7 153356607.982 7        42.900
C05                                                                                                  39223472.473 5                        32.200    39223480.202 6                        37.900    39223471.853 5                        35.400
C04                                                                                                  38466041.131 6 200302631.009 6        36.900    38466048.805 7 154886699.886 7        42.200    38466040.386 6 162762267.999 6        40.400
C03                                                                                                  36062171.931 6 187785127.424 6        40.500    36062172.638 7 145207340.445 7        43.400    36062166.193 7 152590746.154 7        42.600
C02                                                                                                  36895948.779 6 192126802.992 6        37.100    36895949.383 7 148564610.842 7        43.800    36895944.100 6 156118731.127 6        40.600
C01                                                                                                  37335178.097 6 194413974.611 6        39.900    37335184.424 7 150333203.965 7        43.900    37335176.891 6 157977247.058 6        41.300
R16  22807416.452 6 121833059.560 6        41.300    22807414.648 6 121833054.518 6        41.400    22807433.167 7  94759066.985 7        44.100    22807433.516 7  94759046.040 7        43.400
R06  21446031.460 5 114440020.39615        33.300    21446030.063 5 114440056.380 5        33.100
I10  36493479.412 7 143208150.397 7        47.400
G28  22594188.478 7 118733318.617 7        42.500    22594186.318 7 118733325.614 7        43.800    22594210.250 7  92519564.538 7        45.400    22594213.381 7  88664618.942 7        46.900
J02  37102380.537 6 194974334.641 6        41.600    37102379.743 7 194974376.611 7        43.900    37102376.911 6 194974385.911 6        41.700    37102408.050 7 151928146.684 7        44.700    37102409.050 8 145597803.137 8        48.600
G18  23179177.076 6 121807193.460 6        36.200    23179175.721 6 121807096.470 6        37.300    23179200.871 6  94914604.670 6        39.600    23179204.822 6  90959837.712 6        40.800
G23  20137073.261 7 105820975.963 7        46.700    20137071.603 8 105821210.954 8        49.100    20137086.952 8  82458110.053 8        50.400    20137087.996 8  79022366.310 8        52.800
J03  36275143.546 6 190627033.847 6        40.600    36275142.730 7 190627079.849 7        44.000    36275139.707 6 190627106.542 6        41.400    36275169.895 7 148540613.083 7        44.500    36275170.530 7 142351411.288 7        43.800
J07  36502239.393 6 191820467.567 6        40.100    36502237.837 7 191820518.551 7        42.900    36502232.878 7 191820476.315 7        47.200    36502257.479 8 149470574.467 8        49.400    36502256.731 8 143242620.328 8        49.900
J04  38530782.043 7 202480549.331 7        43.700    38530781.096 7 202480665.343 7        47.500    38530778.512 7 202480630.701 7        46.100    38530797.281 8 157777183.335 8        48.700    38530796.235 8 151203122.480 8        48.800
G10  21426653.921 8 112597821.362 8        48.300                                                    21426669.555 7  87738628.547 7        46.700    21426664.678 8  84082852.105 8        48.200
C25  23213017.255 7 121985263.864 7        45.200    23213031.437 7  91092955.470 7        45.400    23213019.178 7 120876315.426 7        43.400                                                    23213018.948 7  98221929.391 7        44.200    23213027.465 7  93469284.900 7        42.500
C33  23342122.096 7 122663837.878 7        47.200    23342152.763 7  91599597.129 7        46.600    23342123.662 7 121548571.700 7        46.200                                                    23342129.977 7  98768199.514 7        45.000    23342149.098 7  93989143.815 7        43.200
C42  23032162.394 7 121034749.134 7        47.600    23032181.811 8  90383124.852 8        49.000    23032163.802 7 119934437.676 7        46.100                                                    23032168.425 7  97456543.447 7        45.900    23032178.068 7  92740935.528 7        45.500
I03  41225161.293 8 161776304.453 8        48.100
G32
G12  22476860.324 7 118116797.084 7        43.200                                                    22476881.700 7  92039323.105 7        45.100
R07  21142654.709 7 113178309.569 7        47.200    21142652.291 7 113178442.584 7        45.300    21142665.683 7  88027739.599 7        46.300    21142665.082 7  88027593.587 7        45.500
R22  22121955.209 7 118088398.891 7        43.000    22121954.871 6 118088420.900 6        41.200    22121973.760 7  91846583.283 7        42.900    22121974.554 6  91846574.287 6        41.600
R10  20441213.050 7 108963231.514 7        44.200    20441211.932 7 108963228.512 7        42.900
G25  21632426.931 7 113678973.360 7        43.900                                                    21632452.366 7  88581279.205 7        44.600    21632451.367 7  84890416.980 7        47.000
G24  23024226.992 6 120993009.802 6        41.900                                                    23024247.431 6  94280184.977 6        40.500    23024245.117 7  90351847.672 7        45.800
E26  24920354.483 7 130957301.495 7        46.100    24920367.071 7  97792808.421 7        43.600    24920363.632 7 100343908.264 7        46.400    24920366.845 8  99068364.651 8        48.300    24920355.300 8 106296479.351 8        48.100
E07  24552482.218 7 129024137.269 7        46.400    24552493.618 7  96349222.851 7        46.500    24552490.185 7  98862667.204 7        47.300    24552493.567 8  97605952.325 8        50.000    24552479.848 8 104727355.908 8        50.500
E13  25174155.513 7 132290907.396 7        44.300    25174177.963 7  98788650.895 7        45.300    25174173.003 7 101365740.540 7        45.800    25174177.492 8 100077202.513 8        48.600    25174159.398 8 107378931.498 8        48.300
E02  26964237.114 6 141698073.693 6        39.500    26964259.989 7 105813595.800 7        44.300    26964255.006 7 108573928.582 7        44.600    26964259.213 7 107193771.480 7        47.800    26964243.834 7 115014674.543 7        45.500
E30  25329411.757 7 133107030.466 7        47.000    25329432.498 7  99398239.664 7        46.800    25329427.921 8 101991210.831 8        48.100    25329431.997 8 100694630.048 8        50.000    25329415.370 8 108041442.307 8        50.000
E27  26568423.306 7 139618012.033 7        44.700    26568448.009 7 104260400.917 7        43.700    26568442.936 7 106980231.100 7        44.600    26568447.176 7 105620094.810 7        47.700    26568431.017 7 113326298.069 7        45.500
E08  26098248.740 7 137147119.993 7        43.700    26098264.591 7 102415057.658 7        44.400    26098260.777 7 105086743.862 7        45.600    26098264.622 8 103750909.062 8        48.300    26098249.984 7 111320669.669 7        47.200
> 2024 10 17  4 15  0.0000000  0 44       0.000000002000
C59                                                                                                  36928181.108 7 192294647.871 7        42.200                                                    36928166.072 7 156255057.200 7        44.100    36928174.935 7 148694351.604 7        43.900
C60                                                                                                  37416418.228 6 194837015.651 6        41.300                                                    37416400.940 7 158320944.592 7        43.100    37416411.335 7 150660286.016 7        43.600
C26  24581140.869 7 129174640.142 7        43.000    24581150.992 7  96461614.813 7        42.900    24581142.996 7 128000378.211 7        43.800                                                    24581140.027 7 104010757.047 7        42.800    24581147.736 6  98977985.771 6        39.200
C24  21512287.111 8 113047851.525 8        49.100    21512291.477 8  84418876.773 8        49.900    21512288.839 7 112020148.143 7        47.400                                                    21512281.445 7  91025528.829 7        45.600    21512288.323 7  86621090.040 7        47.200
C39  36209668.893 8 190283059.933 8        48.100    36209671.503 8 142094476.961 8        48.400    36209670.330 7 188553216.821 7        46.100                                                    36209661.271 7 153214933.902 7        45.300    36209668.365 7 145801282.116 7        44.600
C38  35892252.563 7 188615044.132 7        47.800    35892259.771 8 140848845.196 8        49.400    35892253.930 7 186900317.974 7        45.100                                                    35892248.007 7 151871818.371 7        45.400    35892256.532 7 144523154.636 7        45.700
C16                                                                                                  36264027.585 7 188836271.874 7        47.500    36264029.887 7 146020176.928 7        44.100    36264020.653 7 153444897.940 7        42.000
C14                                                                                                  22501529.985 7 117171341.515 7        45.100    22501529.614 7  90604367.601 7        47.600    22501520.725 7  95211396.388 7        45.100
C13                                                                                                  35872042.771 7 186795100.991 7        47.100    35872046.177 7 144441814.950 7        44.100    35872036.959 7 151786282.813 7        42.800
C06                                                                                                  36244181.560 7 188732926.260 7        44.800    36244179.755 7 145940252.918 7        45.900    36244171.305 7 153360970.204 7        42.500
C05                                                                                                  39223383.684 5 204246632.38715        31.700    39223391.841 6 157936316.69016        37.100    39223383.381 5 165966946.32115        35.700
C04                                                                                                  38466286.816 6 200303908.078 6        36.900    38466294.545 7 154887687.238 7        43.500    38466285.963 6 162763305.593 6        39.900
C03                                                                                                  36062324.237 6 187785920.607 6        40.800    36062324.953 7 145207953.630 7        44.200    36062318.727 6 152591390.552 6        41.800
C02                                                                                                  36895987.039 6 192127003.318 6        36.800    36895987.995 7 148564765.564 7        43.400    36895982.771 6 156118893.764 6        40.300
C01                                                                                                  37335335.058 6 194414791.665 6        39.900    37335341.587 7 150333835.631 7        44.300    37335333.958 6 157977910.869 6        41.400
R16  22827341.630 7 121939495.160 7        42.200    22827339.103 6 121939490.133 6        40.700    22827358.342 7  94841850.054 7        44.300    22827358.741 7  94841829.087 7        43.800
R06  21448331.975 5 114452296.593 5        33.400    21448331.083 5 114452332.604 5        33.400
I10  36493142.801 8 143206829.892 8        48.400
G28  22580660.436 7 118662231.887 7        42.000    22580658.760 7 118662238.884 7        44.400    22580682.566 7  92464172.435 7        45.200    22580685.621 7  88611534.916 7        46.900
J02  37102343.850 7 194974135.442 7        42.000    37102342.230 7 194974177.428 7        44.400    37102338.745 6 194974186.705 6        40.600    37102369.856 7 151927991.501 7        43.900    37102371.077 8 145597654.428 8        48.000
G18  23197845.545 5 121905292.165 5        35.700    23197843.579 6 121905195.167 6        37.200    23197869.792 6  94991045.147 6        38.300    23197872.652 6  91033093.155 6        40.800
G23  20137348.263 7 105822418.726 7        47.100    20137346.341 8 105822653.726 8        48.700    20137361.621 8  82459234.105 8        50.700    20137362.733 8  79023443.486 8        52.500
J03  36277766.532 6 190640815.435 6        41.000    36277765.168 7 190640861.433 7        43.400    36277762.146 6 190640888.126 6        41.300    36277792.803 7 148551352.013 7        44.700    36277793.028 7 142361702.779 7        43.700
J07  36502240.857 6 191820474.975 6        38.300    36502239.263 7 191820525.963 7        43.200    36502234.209 7 191820483.723 7        46.300    36502259.132 8 149470580.118 8        49.800    36502258.260 8 143242625.717 8        50.000
J04  38525541.778 7 202453010.610 7        42.500    38525540.930 7 202453126.607 7        47.300    38525538.200 7 202453091.980 7        45.900    38525557.449 8 157755724.475 8        48.400    38525555.833 8 151182557.711 8        49.000
G10  21412723.196 8 112524612.526 8        48.100                                                    21412738.367 7  87681582.663 7        46.000    21412733.568 8  84028183.132 8        48.500
C25  23197546.452 7 121903966.997 7        44.700    23197561.481 7  91032246.907 7        45.800    23197548.768 7 120795757.635 7        43.400                                                    23197548.539 7  98156469.720 7        43.000    23197557.155 7  93406992.658 7        42.600
C33  23332991.702 7 122615856.799 7        47.200    23333022.247 7  91563767.054 7        46.400    23332993.050 7 121501026.820 7        46.000                                                    23332999.644 7  98729565.363 7        44.500    23333018.919 7  93952379.046 7        43.700
C42  23034135.132 7 121045115.819 7        47.500    23034154.880 8  90390865.943 8        49.000    23034136.401 7 119944710.128 7        46.200                                                    23034141.469 7  97464890.455 7        45.400    23034151.045 7  92748878.598 7        45.300
I03  41215028.601 7 161736540.396 7        47.900
G32
G12  22474182.230 7 118102724.428 7        43.300                                                    22474204.012 7  92028357.461 7        44.000
R07  21135033.634 7 113137518.380 7        47.100    21135031.966 7 113137651.389 7        45.500    21135046.008 7  87996013.089 7        46.600    21135044.887 7  87995867.091 7        45.300
R22  22133272.397 7 118148806.927 7        42.100    22133272.053 6 118148828.947 6        41.300    22133290.675 6  91893566.731 6        41.300    22133291.781 6  91893557.700 6        41.000
R10  20423379.466 7 108868167.352 7        43.900    20423377.531 7 108868164.366 7        42.600
G25  21618829.941 7 113607518.928 7        44.000                                                    21618855.219 7  88525600.618 7        44.300    21618853.934 8  84837058.345 8        48.300
G24  23043035.644 6 121091851.418 6        41.100                                                    23043056.715 7  94357204.155 7        42.300    23043054.036 7  90425657.696 7        45.800
E26  24921846.475 7 130965139.546 7        46.400    24921859.006 7  97798661.253 7        44.200    24921855.316 7 100349913.838 7        46.300    24921858.760 8  99074293.837 8        48.000    24921847.066 7 106302841.206 7        47.800
E07  24552325.355 7 129023312.288 7        46.200    24552336.555 7  96348606.715 7        46.600    24552333.162 7  98862034.999 7        47.300    24552336.707 8  97605328.155 8        49.900    24552322.519 8 104726686.227 8        50.000
E13  25188384.811 7 132365681.380 7        44.300    25188407.426 7  98844488.282 7        45.400    25188401.941 7 101423034.608 7        45.300    25188406.845 8 100133768.241 8        48.500    25188388.757 7 107439624.433 7        47.500
E02  26969180.432 6 141724045.342 6        40.800    26969201.636 7 105832990.153 7        42.900    26969197.329 7 108593828.861 7        44.500    26969201.442 7 107213418.816 7        47.000    26969185.733 7 115035755.406 7        44.700
E30  25321740.159 7 133066718.286 7        47.700    25321761.403 7  99368136.577 7        46.700    25321756.843 8 101960322.424 8        48.000    25321760.672 8 100664134.299 8        49.800    25321744.384 8 108008721.495 8        50.200
E27  26553223.634 7 139538136.352 7        44.700    26553248.010 7 104200753.594 7        45.000    26553243.043 7 106919027.745 7        44.400    26553247.293 8 105559669.474 8        48.300    26553230.963 7 113261463.988 7        45.500
E08  26103837.149 7 137176485.845 7        43.000    26103853.405 7 102436986.423 7        44.000    26103849.094 7 105109244.692 7        45.300    26103852.904 8 103773123.850 8        48.000    26103838.946 7 111344505.379 7        47.300
> 2024 10 17  4 15 30.0000000  0 44       0.000000002000
C59                                                                                                  36928342.623 7 192295489.573 7        42.200                                                    36928327.857 7 156255741.037 7        45.100    36928336.633 7 148695002.320 7        43.800
C60                                                                                                  37416549.608 6 194837699.172 6        41.500                                                    37416532.316 7 158321499.857 7        43.600    37416542.793 7 150660814.371 7        43.400
C26  24595891.933 7 129252158.697 7        42.900    24595902.383 7  96519501.856 7        42.600    24595894.016 7 128077192.105 7        43.200                                                    24595891.507 7 104073174.462 7        42.800    24595899.499 6  99037382.962 6        39.700
C24  21512351.524 8 113048190.799 8        49.600    21512355.997 8  84419130.085 8        50.000    21512353.554 7 112020484.319 7        47.900                                                    21512345.866 7  91025801.977 7        45.900    21512352.647 7  86621349.958 7        46.800
C39  36212302.337 8 190296898.120 8        48.200    36212304.810 8 142104810.563 8        48.500    36212303.710 7 188566929.197 7        46.400                                                    36212294.725 7 153226076.246 7        45.600    36212301.752 7 145811885.297 7        44.600
C38  35893092.361 7 188619457.998 7        47.800    35893099.933 8 140852141.069 8        49.500    35893093.709 7 186904691.698 7        46.300                                                    35893088.184 7 151875372.246 7        45.900    35893096.550 7 144526536.506 7        45.700
C16                                                                                                  36266237.442 7 188847777.673 7        46.600    36266239.695 7 146029073.872 7        43.900    36266230.245 7 153454247.282 7        42.300
C14                                                                                                  22497682.354 7 117151306.136 7        45.300    22497682.298 8  90588874.857 8        48.000    22497673.102 7  95195115.903 7        45.500
C13                                                                                                  35869213.209 7 186780367.044 7        47.300    35869216.702 7 144430421.608 7        44.200    35869207.632 7 151774310.180 7        43.300
C06                                                                                                  36245229.240 7 188738381.966 7        44.900    36245227.418 7 145944471.552 7        45.700    36245219.253 7 153365403.358 7        43.100
C05                                                                                                  39223295.478 5 204246171.52915        32.200    39223303.504 6 157935960.11216        37.600    39223295.072 5 165966571.66315        35.900
C04                                                                                                  38466532.038 6 200305185.661 6        36.500    38466539.853 7 154888675.026 7        42.500    38466531.326 6 162764343.639 6        40.500
C03                                                                                                  36062476.791 6 187786714.342 6        40.800    36062477.858 7 145208567.235 7        43.800    36062471.211 7 152592035.400 7        42.600
C02                                                                                                  36896026.101 6 192127205.912 6        37.000    36896027.172 7 148564922.053 7        44.500    36896021.838 6 156119058.245 6        41.000
C01                                                                                                  37335492.347 6 194415609.608 6        39.900    37335498.490 7 150334467.979 7        44.500    37335491.213 6 157978575.406 6        41.400
R16  22847339.635 7 122046323.833 7        44.800    22847338.383 7 122046318.818 7        42.400    22847356.003 7  94924938.859 7        42.700    22847357.370 7  94924917.860 7        42.800
R06  21450667.949 5 114464763.842 5        34.800    21450668.277 5 114464799.862 5        33.800
I10  36492805.940 8 143205507.211 8        48.500
G28  22567198.648 6 118591489.962 6        41.700    22567196.778 7 118591496.963 7        43.300    22567220.804 7  92409049.058 7        46.000    22567224.252 7  88558708.387 7        47.400
J02  37102313.184 7 194973975.933 7        42.200    37102312.073 7 194974017.925 7        44.400    37102308.517 7 194974027.197 7        42.600    37102339.349 7 151927867.252 7        46.200    37102340.764 7 145597535.349 7        47.800
G18  23216528.274 5 122003472.291 5        35.000    23216527.003 6 122003375.292 6        36.900    23216552.306 6  95067549.065 6        37.000    23216555.996 6  91106409.382 6        40.800
G23  20137718.948 7 105824367.262 7        47.200    20137717.322 8 105824602.257 8        49.100    20137732.870 8  82460752.264 8        50.300    20137733.940 8  79024898.346 8        53.000
J03  36280396.569 6 190654636.824 6        41.300    36280395.440 7 190654682.822 7        43.400    36280392.567 6 190654709.519 6        41.300    36280422.858 7 148562121.938 7        43.900    36280423.140 7 142372023.964 7        43.600
J07  36502241.673 6 191820482.298 6        39.900    36502240.833 7 191820533.309 7        43.100    36502235.500 7 191820491.040 7        46.200    36502260.692 8 149470585.705 8        48.900    36502259.805 8 143242631.043 8        49.500
J04  38520292.647 7 202425424.635 7        43.100    38520291.111 7 202425540.632 7        47.600    38520289.100 7 202425506.005 7        45.100    38520307.916 8 157734228.804 8        48.300    38520306.550 8 151161957.660 8        48.800
G10  21398840.155 8 112451659.116 8        48.000                                                    21398856.020 7  87624735.844 7        46.300    21398851.289 8  83973704.922 8        48.500
C25  23182126.603 7 121822936.004 7        44.500    23182141.738 7  90971736.950 7        46.200    23182129.191 7 120715463.279 7        43.400                                                    23182128.609 7  98091224.108 7        43.900    23182137.291 7  93344904.136 7        43.000
C33  23323866.573 7 122567905.232 7        47.200    23323897.804 7  91527959.004 7        46.600    23323868.591 7 121453511.171 7        47.000                                                    23323874.802 7  98690954.972 7        45.300    23323894.140 7  93915636.901 7        43.900
C42  23036143.476 7 121055667.887 7        47.200    23036163.058 8  90398745.454 8        48.800    23036144.568 7 119955166.285 7        45.700                                                    23036149.617 7  97473386.729 7        46.000    23036159.454 7  92756963.708 7        45.300
I03  41204897.262 8 161696780.302 8        48.300
G32
G12  22471601.956 7 118089166.639 7        44.100                                                    22471623.708 7  92017792.986 7        44.200
R07  21127413.402 8 113096723.295 8        48.000    21127412.412 7 113096856.295 7        45.200    21127424.439 7  87964283.541 7        46.300    21127424.101 7  87964137.551 7        45.600
R22  22144669.277 6 118209644.708 6        41.400    22144669.640 6 118209666.705 6        41.100    22144688.742 6  91940884.351 6        41.400    22144689.839 6  91940875.347 6        40.900
R10  20405644.477 7 108773633.379 7        43.600    20405643.347 7 108773630.393 7        42.800
G25  21605295.922 7 113536400.342 7        43.300                                                    21605321.854 7  88470183.688 7        44.800    21605320.251 8  84783950.495 8        48.200
G24  23061860.009 6 121190772.687 6        41.900                                                    23061881.079 6  94434285.404 6        40.900    23061879.131 7  90499527.121 7        46.200
E26  24923415.992 7 130973386.918 7        45.800    24923428.596 7  97804819.773 7        44.300    24923424.279 7 100356233.008 7        45.900    24923428.256 8  99080532.684 8        48.400    24923416.939 8 106309535.320 8        48.900
E07  24552162.023 7 129022454.672 7        46.300    24552173.667 7  96347966.222 7        47.100    24552169.934 7  98861377.811 7        47.600    24552173.581 8  97604679.320 8        50.300    24552159.668 8 104725990.064 8        50.300
E13  25202645.857 7 132440622.701 7        44.600    25202668.717 7  98900450.659 7        46.500    25202663.444 7 101480456.911 7        45.900    25202668.088 8 100190460.589 8        49.100    25202650.250 7 107500453.227 7        47.900
E02  26974193.087 6 141750384.966 6        41.300    26974214.399 7 105852659.289 7        42.100    26974209.766 7 108614011.113 7        43.900    26974213.531 7 107233344.497 7        46.400    26974197.842 7 115057134.910 7        43.900
E30  25314125.425 7 133026700.494 7        47.000    25314145.951 7  99338253.320 7        47.200    25314141.092 7 101929659.591 7        47.500    25314145.454 8 100633861.254 8        50.200    25314128.914 8 107976239.645 8        50.400
E27  26538021.456 7 139458248.125 7        44.400    26538045.743 7 104141096.908 7        44.500    26538040.624 7 106857814.782 7        44.500    26538044.990 7 105499234.637 7        47.400    26538028.491 7 113196619.724 7        45.700
E08  26109416.335 7 137205801.585 7        43.000    26109432.115 7 102458877.743 7        44.500    26109427.833 7 105131707.142 7        45.500    26109431.817 8 103795300.740 8        48.000    26109417.026 7 111368300.405 7        47.100
> 2024 10 17  4 16  0.0000000  0 44       0.000000002000
C59                                                                                                  36928505.100 7 192296333.639 7        42.300                                                    36928490.108 7 156256426.781 7        44.700    36928498.992 7 148695654.842 7        43.900
C60                                                                                                  37416681.343 6 194838385.152 6        41.400                                                    37416664.141 7 158322057.125 7        43.700    37416674.686 7 150661344.630 7        43.400
C26  24610692.266 7 129329933.861 7        42.800    24610702.576 7  96577580.500 7        43.000    24610694.509 7 128154260.204 7        43.600                                                    24610691.830 7 104135798.447 7        42.800    24610699.881 6  99096976.709 6        39.400
C24  21512508.827 8 113049015.421 8        49.300    21512512.883 8  84419745.831 8        50.200    21512510.332 7 112021301.434 7        47.100                                                    21512502.840 7  91026465.922 7        45.800    21512509.464 7  86621981.774 7        46.600
C39  36214945.737 8 190310788.583 8        48.200    36214948.222 8 142115183.204 8        48.300    36214947.003 7 188580693.394 7        46.400                                                    36214938.107 7 153237260.697 7        45.500    36214944.971 7 145822528.538 7        44.500
C38  35893960.971 7 188624023.599 7        47.500    35893969.062 8 140855550.248 8        49.500    35893962.785 7 186909215.782 7        46.400                                                    35893957.040 7 151879048.297 7        45.800    35893965.467 7 144530034.645 7        45.600
C16                                                                                                  36268460.603 7 188859355.231 7        47.000    36268463.051 7 146038026.280 7        43.700    36268453.750 7 153463654.930 7        42.200
C14                                                                                                  22493858.961 7 117131397.172 7        45.400    22493859.302 8  90573479.853 8        48.200    22493849.722 7  95178938.130 7        45.100
C13                                                                                                  35866407.663 7 186765757.504 7        46.800    35866411.388 7 144419124.451 7        44.600    35866402.116 7 151762438.626 7        43.000
C06                                                                                                  36246293.788 7 188743924.979 7        45.500    36246291.831 7 145948757.688 7        45.800    36246283.741 7 153369907.457 7        43.200
C05                                                                                                  39223207.510 5 204245711.86915        32.600    39223215.328 6 157935604.43716        37.100    39223206.964 6 165966197.95916        36.000
C04                                                                                                  38466777.478 6 200306464.384 6        36.800    38466785.506 7 154889663.667 7        43.300    38466777.034 6 162765382.586 6        40.500
C03                                                                                                  36062629.478 6 187787509.136 6        40.600    36062630.725 7 145209181.669 7        43.700    36062623.947 7 152592681.113 7        42.100
C02                                                                                                  36896065.721 6 192127411.203 6        37.200    36896066.714 7 148565080.614 7        43.700    36896061.517 6 156119224.918 6        41.100
C01                                                                                                  37335649.505 6 194416428.825 6        40.200    37335656.088 7 150335101.301 7        45.000    37335648.617 6 157979240.971 6        41.600
R16  22867411.537 7 122153542.373 7        42.700    22867411.139 6 122153537.366 6        41.100    22867428.303 7  95008330.892 7        43.400    22867429.138 7  95008309.853 7        43.500
R06  21453041.665 5 114477424.483 5        33.400    21453040.545 5 114477460.490 5        32.900
I10  36492468.480 8 143204182.702 8        48.800
G28  22553802.525 6 118521094.213 6        40.900    22553801.059 7 118521101.205 7        42.700    22553824.830 7  92354195.423 7        44.900    22553828.088 7  88506140.369 7        47.200
J02  37102290.400 6 194973856.823 6        39.500    37102288.917 7 194973898.826 7        44.600    37102285.726 6 194973908.086 6        40.400    37102317.014 7 151927774.481 7        45.800    37102317.944 7 145597446.442 7        47.500
G18  23235226.460 5 122101731.185 5        34.000    23235224.838 5 122101634.225 5        35.900    23235250.271 6  95144114.360 6        36.900    23235254.392 6  91179784.431 6        40.300
G23  20138186.751 7 105826823.245 7        46.400    20138184.805 8 105827058.243 8        49.300    20138200.368 8  82462665.820 8        49.800    20138201.451 8  79026732.129 8        52.400
J03  36283034.649 6 190668498.098 6        41.300    36283033.235 7 190668544.078 7        43.300    36283030.130 6 190668570.788 6        40.700    36283060.424 7 148572922.938 7        43.700    36283060.741 7 142382374.937 7        43.600
J07  36502243.980 6 191820490.029 6        38.400    36502242.472 7 191820541.022 7        43.300    36502237.518 7 191820498.770 7        46.300    36502262.205 8 149470591.581 8        49.900    36502261.272 8 143242636.646 8        49.500
J04  38515034.358 7 202397792.223 7        43.000    38515033.032 7 202397908.214 7        47.300    38515030.748 7 202397873.593 7        45.600    38515049.752 8 157712696.923 8        48.400    38515048.335 8 151141322.928 8        48.900
G10  21385007.001 7 112378964.414 7        47.200                                                    21385022.194 7  87568090.623 7        46.500    21385017.835 8  83919419.905 8        49.200
C25  23166758.118 7 121742173.371 7        44.900    23166772.688 7  90911427.369 7        45.800    23166760.360 7 120635434.841 7        44.800                                                    23166760.139 7  98026194.554 7        43.900    23166768.669 7  93283021.220 7        42.700
C33  23314747.638 7 122519984.908 7        46.600    23314778.868 7  91492174.306 7        47.200    23314749.718 7 121406026.479 7        47.300                                                    23314756.000 7  98652369.741 7        44.900    23314775.383 7  93878918.689 7        44.300
C42  23038187.245 7 121066407.064 7        47.200    23038206.796 8  90406764.693 8        48.900    23038188.480 7 119965807.801 7        46.100                                                    23038193.423 7  97482033.648 7        45.300    23038203.335 7  92765192.157 7        45.400
I03  41194766.074 8 161657024.569 8        48.300
G32
G12  22469120.995 7 118076125.941 7        43.400                                                    22469142.036 7  92007631.436 7        44.600
R07  21119792.263 8 113055926.322 8        48.000    21119791.304 7 113056059.323 7        46.200    21119803.812 7  87932552.515 7        46.800    21119803.238 7  87932406.517 7        46.100
R22  22156146.888 6 118270908.678 6        39.700    22156146.036 6 118270930.696 6        40.700    22156166.578 6  91988533.516 6        40.600    22156166.741 6  91988524.527 6        40.800
R10  20388010.788 7 108679633.768 7        44.200    20388009.117 7 108679630.773 7        42.900
G25  21591827.005 7 113465621.321 7        43.900                                                    21591852.443 7  88415031.390 7        44.800    21591851.515 7  84731096.217 7        47.600
G24  23080699.293 6 121289771.572 6        41.800                                                    23080719.776 6  94511427.134 6        40.900    23080718.471 7  90573454.530 7        46.200
E26  24925063.446 7 130982043.489 7        47.000    24925075.761 7  97811283.849 7        43.700    24925072.035 7 100362865.730 7        45.400    24925075.704 8  99087081.083 8        48.000    24925064.113 8 106316561.596 8        48.100
E07  24551992.801 7 129021564.666 7        46.600    24552004.330 7  96347301.523 7        46.800    24552000.703 7  98860695.793 7        47.800    24552004.284 8  97604005.956 8        49.800    24551990.083 8 104725267.607 8        50.000
E13  25216938.748 7 132515729.843 7        44.800    25216961.394 7  98956536.842 7        46.100    25216956.198 7 101538006.242 7        46.300    25216960.682 8 100247278.344 8        48.800    25216943.216 8 107561416.607 8        48.200
E02  26979275.335 6 141777092.649 6        41.600    26979296.862 7 105872603.291 7        43.800    26979291.507 7 108634475.380 7        44.300    26979295.854 7 107253548.644 7        47.300    26979280.167 7 115078813.217 7        42.900
E30  25306566.361 7 132986979.273 7        47.400    25306587.020 7  99308591.522 7        47.300    25306582.291 7 101899223.998 7        46.800    25306586.630 8 100603812.557 8        49.800    25306570.500 8 107943998.504 8        50.700
E27  26522817.201 7 139378349.797 7        43.900    26522841.434 7 104081432.641 7        44.300    26522836.373 7 106796594.066 7        45.300    26522840.795 7 105438792.156 7        47.700    26522824.059 7 113131767.263 7        46.100
E08  26114986.064 7 137235068.162 7        43.400    26115001.547 7 102480732.379 7        44.400    26114997.213 7 105154131.909 7        45.000    26115001.263 8 103817440.427 8        48.000    26114986.810 7 111392055.545 7        46.900
> 2024 10 17  4 16 30.0000000  0 44       0.000000002000
C59                                                                                                  36928667.729 7 192297180.247 7        42.300                                                    36928652.926 7 156257114.595 7        44.600    36928661.716 7 148696309.344 7        43.400
C60                                                                                                  37416813.976 6 194839073.769 6        41.400                                                    37416796.589 7 158322616.528 7        43.500    37416807.153 7 150661876.919 7        43.300
C26  24625541.303 7 129407963.781 7        42.900    24625551.443 7  96635849.359 7        43.200    24625542.679 7 128231580.757 7        42.700                                                    24625540.716 7 104198627.553 7        43.200    24625548.990 6  99156765.653 6        39.800
C24  21512758.085 8 113050325.403 8        49.400    21512762.203 8  84420724.002 8        50.100    21512759.684 7 112022599.511 7        47.600                                                    21512752.348 7  91027520.678 7        46.200    21512758.750 7  86622985.484 7        46.300
C39  36217598.882 8 190324730.995 8        48.200    36217601.410 8 142125594.607 8        48.700    36217600.385 7 188594509.031 7        46.300                                                    36217591.462 7 153248486.952 7        45.700    36217598.219 7 145833211.564 7        44.400
C38  35894859.256 7 188628741.449 7        47.400    35894866.759 8 140859073.125 8        49.000    35894860.953 7 186913890.742 7        46.300                                                    35894854.986 7 151882846.938 7        45.800    35894863.278 7 144533649.444 7        45.500
C16                                                                                                  36270697.799 7 188871004.170 7        47.400    36270700.024 7 146047033.897 7        43.900    36270690.931 7 153473120.581 7        42.200
C14                                                                                                  22490060.648 7 117111616.124 7        45.000    22490060.318 7  90558183.768 7        47.800    22490051.115 7  95162864.318 7        44.600
C13                                                                                                  35863626.192 7 186751273.130 7        46.700    35863630.106 7 144407924.091 7        43.800    35863620.638 7 151750668.788 7        43.300
C06                                                                                                  36247375.247 7 188749555.078 7        45.000    36247373.396 7 145953111.161 7        45.500    36247365.122 7 153374482.309 7        42.400
C05                                                                                                  39223119.791 5 204245253.79015        32.900    39223127.648 6 157935250.00316        38.100    39223119.376 6 165965825.56116        36.000
C04                                                                                                  38467023.532 6 200307744.393 6        36.900    38467031.479 7 154890653.311 7        43.000    38467023.008 6 162766422.588 6        40.900
C03                                                                                                  36062782.461 6 187788305.274 6        40.600    36062783.856 7 145209797.131 7        44.300    36062777.080 7 152593327.912 7        42.500
C02                                                                                                  36896105.765 6 192127619.235 6        36.900    36896107.004 7 148565241.302 7        44.000    36896101.686 6 156119393.827 6        41.100
C01                                                                                                  37335807.177 6 194417249.579 6        40.300    37335813.890 7 150335735.824 7        44.500    37335806.419 6 157979907.789 6        41.400
R16  22887555.924 6 122261146.857 6        41.300    22887554.138 6 122261141.904 6        40.900    22887572.063 7  95092023.098 7        44.000    22887572.725 7  95092002.087 7        43.600
R06  21455451.152 5 114490280.800 5        33.500    21455450.189 5 114490316.811 5        33.600
I10  36492130.925 7 143202856.561 7        47.900
G28  22540473.421 6 118451045.768 6        39.200    22540471.493 7 118451052.759 7        42.700    22540494.593 7  92299612.412 7        46.100    22540498.073 7  88453831.693 7        47.200
J02  37102275.460 6 194973778.641 6        40.400    37102274.031 7 194973820.643 7        44.500    37102271.091 6 194973829.907 6        41.800    37102301.805 7 151927713.577 7        46.000    37102302.908 7 145597388.082 7        47.100
G18  23253938.894 5                        32.200    23253937.578 5 122199968.986 5        33.500    23253963.594 6  95220738.771 6        36.300    23253966.825 6  91253216.133 6        38.100
G23  20138750.645 7 105829788.005 7        45.900    20138749.117 8 105830023.020 8        48.800    20138764.608 8  82464975.843 8        50.700    20138765.845 8  79028945.859 8        52.700
J03  36285679.881 6 190682399.050 6        40.200    36285678.433 7 190682445.057 7        43.200    36285675.300 6 190682471.741 6        41.200    36285705.396 7 148583754.872 7        44.200    36285706.088 7 142392755.542 7        43.700
J07  36502245.158 6 191820498.439 6        39.200    36502243.969 7 191820549.422 7        43.300    36502238.877 7 191820507.185 7        46.200    36502264.109 8 149470598.002 8        49.400    36502263.072 8 143242642.759 8        49.100
J04  38509767.497 7 202370113.862 7        43.700    38509766.117 7 202370229.859 7        47.300    38509763.912 7 202370195.239 7        45.600    38509782.827 7 157691129.265 7        47.800    38509781.369 8 151120653.884 8        48.800
G10  21371223.427 7 112306531.449 7        47.600                                                    21371238.844 7  87511649.341 7        47.000    21371234.504 8  83865330.325 8        49.300
C25  23151440.837 7 121661681.175 7        44.600    23151455.241 7  90851319.733 7        45.200    23151442.975 7 120555674.421 7        43.800                                                    23151442.910 7  97961382.807 7        43.800    23151451.335 7  93221345.544 7        42.300
C33  23305634.859 7 122472097.340 7        46.300    23305666.164 7  91456414.069 7        47.100    23305636.940 7 121358574.260 7        47.200                                                    23305643.201 7  98613810.900 7        45.100    23305662.807 7  93842225.587 7        44.200
C42  23040267.005 7 121077334.801 7        47.400    23040286.399 8  90414924.735 8        48.600    23040267.988 7 119976636.185 7        45.900                                                    23040273.159 7  97490832.401 7        45.500    23040283.143 7  92773565.107 7        45.300
I03  41184636.512 8 161617273.287 8        48.000
G32
G12  22466737.610 7 118063603.547 7        44.800                                                    22466758.957 7  91997873.764 7        44.700
R07  21112171.324 8 113015128.996 8        48.400    21112170.623 7 113015261.997 7        46.300    21112182.144 7  87900821.223 7        47.000    21112182.088 7  87900675.233 7        46.300
R22  22167703.250 6 118332595.117 6        41.700    22167702.098 6 118332617.115 6        40.800    22167722.740 6  92036511.253 6        41.400    22167723.725 6  92036502.272 6        41.200
R10  20370477.110 7 108586172.607 7        44.000    20370476.291 7 108586169.612 7        43.300
G25  21578423.355 7 113395185.200 7        44.300                                                    21578448.739 7  88360146.230 7        43.600    21578448.094 8  84678497.980 8        48.500
G24  23099552.121 7 121388845.990 7        42.700                                                    23099574.024 7  94588627.683 7        42.700    23099571.661 7  90647438.344 7        46.300
E26  24926788.973 7 130991108.895 7        46.900    24926801.439 7  97818053.171 7        44.300    24926797.588 7 100369811.709 7        46.500    24926801.235 8  99093938.738 8        48.400    24926789.193 7 106323919.671 7        47.800
E07  24551817.280 7 129020642.173 7        47.300    24551828.790 7  96346612.574 7        46.800    24551825.108 7  98859988.870 7        47.700    24551828.798 8  97603308.018 8        50.100    24551814.939 8 104724518.771 8        50.300
E13  25231262.255 7 132591000.916 7        43.600    25231285.250 7  99012745.444 7        45.600    25231280.070 7 101595681.183 7        45.900    25231284.482 8 100304220.125 8        48.300    25231266.958 8 107622513.025 8        48.300
E02  26984428.457 7 141804168.257 7        42.000    26984449.344 7 105892822.030 7        44.500    26984444.514 7 108655221.606 7        45.100    26984448.576 7 107274031.129 7        47.600    26984433.007 7 115100790.138 7        44.200
E30  25299064.524 7 132947556.403 7        46.700    25299085.218 7  99279152.505 7        47.300    25299079.890 7 101869016.983 7        46.400    25299084.553 8 100573989.546 8        49.500    25299068.354 8 107911999.534 8        50.500
E27  26507611.373 7 139298443.496 7        43.500    26507635.598 7 104021762.471 7        44.300    26507630.773 7 106735367.259 7        45.100    26507635.071 7 105378343.662 7        47.900    26507618.671 7 113066908.329 7        46.500
E08  26120546.136 7 137264286.251 7        43.600    26120561.968 7 102502550.762 7        44.900    26120557.854 7 105176519.509 7        45.300    26120561.608 7 103839543.442 7        47.800    26120546.933 7 111415771.311 7        46.900
> 2024 10 17  4 17  0.0000000  0 44       0.000000000000
C59                                                                                                  36928830.762 7 192298029.082 7        42.200                                                    36928815.877 7 156257804.225 7        45.100    36928824.798 7 148696965.566 7        43.600
C60                                                                                                  37416946.754 6 194839764.730 6        41.400                                                    37416929.510 7 158323177.839 7        44.400    37416940.009 7 150662411.024 7        43.400
C26  24640437.975 7 129486245.909 7        43.100    24640449.021 7  96694306.547 7        43.700    24640439.177 7 128309151.261 7        43.700                                                    24640437.528 7 104261659.751 7        43.300    24640445.643 6  99216747.862 6        39.900
C24  21513099.653 8 113052120.069 8        49.500    21513103.770 8  84422064.137 8        50.300    21513101.232 8 112024377.876 8        48.000                                                    21513093.901 7  91028965.704 7        46.700    21513100.334 7  86624360.583 7        46.600
C39  36220261.730 8 190338724.357 8        48.200    36220264.478 8 142136044.076 8        48.100    36220263.204 7 188608375.191 7        45.400                                                    36220254.424 7 153259754.254 7        45.800    36220261.121 7 145843933.653 7        44.300
C38  35895786.338 7 188633611.452 7        47.600    35895793.692 8 140862709.630 8        49.100    35895787.667 7 186918716.467 7        46.100                                                    35895781.768 7 151886768.093 7        46.000    35895790.152 7 144537380.827 7        45.600
C16                                                                                                  36272948.231 7 188882723.652 7        46.300    36272950.850 7 146056096.065 7        44.000    36272941.643 7 153482643.552 7        42.800
C14                                                                                                  22486286.478 7 117091964.126 7        44.800    22486286.808 7  90542987.486 7        47.500    22486277.283 7  95146895.372 7        45.300
C13                                                                                                  35860869.110 7 186736914.242 7        47.200    35860872.567 7 144396820.747 7        44.100    35860863.333 7 151739000.902 7        43.000
C06                                                                                                  36248472.648 7 188755271.444 7        45.400    36248471.379 7 145957531.342 7        46.200    36248462.783 7 153379127.265 7        42.700
C05                                                                                                  39223031.981 5 204244796.86715        32.900    39223040.414 6 157934896.44816        37.400    39223031.733 5 165965454.08715        35.000
C04                                                                                                  38467269.929 6 200309025.331 6        36.900    38467277.664 7 154891643.682 7        42.700    38467269.091 6 162767463.347 6        40.000
C03                                                                                                  36062935.722 6 187789102.285 6        40.900    36062936.789 7 145210413.276 7        43.300    36062930.231 7 152593975.417 7        42.400
C02                                                                                                  36896146.513 6 192127829.836 6        37.100    36896147.232 7 148565403.975 7        44.100    36896142.181 6 156119564.811 6        40.900
C01                                                                                                  37335965.359 6 194418071.525 6        40.200    37335971.708 7 150336371.262 7        44.100    37335964.335 6 157980575.587 6        41.000
R16  22907771.025 6 122369133.090 6        39.600    22907770.230 6 122369128.132 6        39.900    22907788.125 7  95176012.198 7        45.100    22907788.347 7  95175991.209 7        43.800
R06  21457896.510 5 114503334.618 5        32.900    21457897.522 5 114503370.620 5        33.700
I10  36491792.487 7 143201528.487 7        47.800
G28  22527208.761 6 118381345.052 6        41.000    22527207.066 7 118381352.035 7        42.800    22527230.706 7  92245300.357 7        46.200    22527234.205 7  88401782.685 7        47.300
J02  37102268.315 6 194973741.255 6        40.800    37102267.134 7 194973783.250 7        44.900    37102263.945 7 194973792.518 7        43.000    37102295.189 7 151927684.474 7        47.100    37102295.598 7 145597360.196 7        46.600
G18  23272665.222 5 122298473.20715        32.100    23272663.441 5 122298376.278 5        32.200    23272689.448 5  95297419.645 5        35.700    23272692.680 6  91326701.940 6        37.300
G23  20139412.347 7 105833262.320 7        45.000    20139410.433 8 105833497.317 8        48.700    20139425.875 8  82467682.884 8        50.500    20139427.187 8  79031540.065 8        52.900
J03  36288332.465 6 190696339.006 6        41.300    36288331.000 7 190696385.004 7        43.200    36288328.228 6 190696411.702 6        41.100    36288358.241 7 148594617.187 7        44.000    36288358.720 7 142403165.254 7        43.600
J07  36502247.196 6 191820507.015 6        38.900    36502245.879 7 191820558.019 7        43.000    36502240.657 7 191820515.756 7        46.200    36502265.896 8 149470604.552 8        50.000    36502264.894 8 143242649.020 8        49.100
J04  38504491.968 7 202342389.417 7        43.300    38504490.673 7 202342505.407 7        47.300    38504488.076 7 202342470.780 7        45.500    38504507.120 7 157669525.680 7        47.800    38504505.750 8 151099950.425 8        48.400
G10  21357490.828 7 112234362.625 7        46.400                                                    21357505.770 7  87455413.867 7        46.800    21357501.049 8  83811438.006 8        49.400
C25  23136175.386 7 121581460.937 7        44.900    23136190.278 7  90791415.177 7        45.700    23136177.533 7 120476183.463 7        43.700                                                    23136177.145 7  97896790.012 7        44.800    23136185.741 7  93159878.235 7        42.500
C33  23296528.200 7 122424243.415 7        46.300    23296560.016 7  91420678.976 7        47.800    23296530.793 7 121311155.389 7        46.700                                                    23296536.873 7  98575279.148 7        45.000    23296556.646 7  93805558.282 7        44.200
C42  23042382.282 7 121088451.925 7        47.300    23042402.099 8  90423226.215 8        48.200    23042383.517 7 119987652.257 7        44.900                                                    23042388.937 7  97499783.663 7        45.600    23042398.751 7  92782083.186 7        45.200
I03  41174508.519 7 161577526.201 7        47.800
G32                                                                                                                                                  22866029.796 5  89731212.49715        31.700
G12  22464453.297 7 118051600.756 7        44.700                                                    22464474.890 7  91988520.958 7        44.300
R07  21104550.353 8 112974333.009 8        48.600    21104549.256 7 112974466.024 7        46.800    21104561.439 7  87869090.979 7        46.800    21104561.172 7  87868944.989 7        46.000
R22  22179337.261 7 118394699.673 7        43.100    22179337.165 6 118394721.681 6        41.900    22179357.251 6  92084814.151 6        41.300    22179358.120 6  92084805.171 6        40.100
R10  20353045.632 7 108493254.057 7        44.100    20353044.686 7 108493251.057 7        42.600
G25  21565085.035 7 113325094.766 7        43.000                                                    21565111.051 7  88305530.466 7        44.100    21565109.808 8  84626157.918 8        48.800
G24  23118419.493 6 121487993.218 6        41.700                                                    23118441.230 7  94665885.000 7        42.600    23118439.191 7  90721476.527 7        46.200
E26  24928591.617 7 131000582.137 7        45.600    24928604.602 7  97825127.087 7        45.000    24928600.275 7 100377070.192 7        46.100    24928604.193 8  99101104.943 8        48.500    24928592.113 8 106331608.806 8        48.400
E07  24551635.448 7 129019686.601 7        46.300    24551647.106 7  96345898.934 7        46.700    24551643.324 7  98859256.616 7        47.600    24551647.012 8  97602585.067 8        49.800    24551632.745 8 104723743.100 8        50.000
E13  25245616.730 7 132666433.368 7        44.100    25245640.130 7  99069074.560 7        46.000    25245635.038 7 101653479.799 7        45.900    25245639.170 8 100361283.983 8        48.200    25245621.618 8 107683740.423 8        48.300
E02  26989649.832 6 141831611.040 6        40.900    26989671.610 7 105913314.956 7        44.100    26989667.088 7 108676249.171 7        46.100    26989671.064 8 107294791.364 8        48.200    26989656.369 7 115123065.098 7        45.800
E30  25291619.236 7 132908433.160 7        47.300    25291640.498 7  99249937.242 7        47.300    25291634.828 7 101839039.557 7        46.400    25291639.400 8 100544393.199 8        49.300    25291623.150 8 107880243.749 8        50.300
E27  26492404.570 7 139218530.752 7        42.800    26492428.656 7 103962087.469 7        43.800    26492423.766 7 106674135.513 7        44.400    26492428.112 7 105317890.287 7        47.700    26492412.065 7 113002044.166 7        46.600
E08  26126096.438 7 137293455.917 7        43.700    26126113.080 7 102524332.984 7        45.200    26126109.167 7 105198870.017 7        45.500    26126112.718 8 103861609.802 8        48.500    26126098.366 7 111439447.776 7        47.200
