     3.04           OBSERVATION DATA    M (MIXED)           RINEX VERSION / TYPE
R12 6.13            Receiver Operator   20241017 083841 UTC PGM / RUN BY / DATE
A                                                           MARKER NAME
GEODETIC                                                    MARKER TYPE         
OBS                 AGENCY                                  OBSERVER / AGENCY   
6005F01017          TRIMBLE R12         6.13                REC # / TYPE / VERS
                    TRMR12          NONE                    ANT # / TYPE
 -2418127.5173  5385730.7059  2405933.6077                  APPROX POSITION XYZ
        1.7500        0.0000        0.0000                  ANTENNA: DELTA H/E/N
G   15 C1C L1C S1C C1X L1X S1X C2W L2W S2W C2X L2X S2X C5X  SYS / # / OBS TYPES
       L5X S5X                                              SYS / # / OBS TYPES
R   15 C1C L1C S1C C1P L1P S1P C2C L2C S2C C2P L2P S2P C3X  SYS / # / OBS TYPES
       L3X S3X                                              SYS / # / OBS TYPES
E   15 C1X L1X S1X C5X L5X S5X C7X L7X S7X C8X L8X S8X C6X  SYS / # / OBS TYPES
       L6X S6X                                              SYS / # / OBS TYPES
J   15 C1C L1C S1C C1X L1X S1X C1Z L1Z S1Z C2X L2X S2X C5X  SYS / # / OBS TYPES
       L5X S5X                                              SYS / # / OBS TYPES
C   18 C1X L1X S1X C5X L5X S5X C2I L2I S2I C7I L7I S7I C6I  SYS / # / OBS TYPES
       L6I S6I C7D L7D S7D                                  SYS / # / OBS TYPES
I    3 C5A L5A S5A                                          SYS / # / OBS TYPES
    30.000                                                  INTERVAL
  2024    10    17     8    39    0.0000000     GPS         TIME OF FIRST OBS
G L2X -0.25000                                              SYS / PHASE SHIFT   
R L1P  0.25000                                              SYS / PHASE SHIFT   
R L2C -0.25000                                              SYS / PHASE SHIFT   
J L2X  0.25000                                              SYS / PHASE SHIFT   
DBHZ                                                        SIGNAL STRENGTH UNIT
  8 R01  1 R02 -4 R08  6 R11  0 R12 -1 R13 -2 R21  4 R22 -3 GLONASS SLOT / FRQ #
                                                            GLONASS COD/PHS/BIS 
                                                            END OF HEADER       
> 2024 10 17  8 39  0.0000000  0 42       -.000358551000
C41  22256364.971 8 116957940.11318        48.800    22256387.525 8  87338840.43018        51.400    22256367.359 7 115894745.61217        47.800                                                    22256371.820 7  94173947.94217        47.100    22256384.012 7  89617236.47917        46.500
C40  37120286.365 7 195068599.59117        45.300    37120300.777 7 145668162.03917        47.900    37120291.667 7 193295094.15817        45.000                                                    37120288.279 7 157068074.15417        44.600    37120296.787 7 149468054.02517        42.600
C39  36752576.457 7 193136113.28917        46.400    36752580.130 7 144225070.65017        47.900    36752580.233 7 191380326.50917        46.600                                                    36752569.988 7 155512163.61217        45.200    36752578.441 7 147987401.88517        45.100
C25  23582745.037 7 123928113.37517        44.300    23582751.302 7  92543586.43617        45.900    23582748.176 7 122801556.64417        44.300                                                    23582741.274 7  99786302.14517        43.700    23582748.214 7  94957953.42617        42.600
C23  22694923.132 8 119262582.16718        48.700    22694926.822 8  89059761.17618        50.300    22694927.391 8 118178444.33218        48.300                                                    22694914.545 7  96029638.48717        46.000    22694923.826 7  91383051.85117        46.600
C16                                                                                                  36967328.756 7 192498580.04917        45.600    36967330.557 7 148852067.19517        44.700    36967320.054 6 156420839.86616        41.300
C13                                                                                                  38462656.908 6 200285142.72016        39.200    38462672.516 7 154873130.76717        42.200    38462659.843 6 162748059.05316        40.700
C04                                                                                                  38484697.062 6 200399913.66216        36.900    38484703.819 7 154961953.77717        42.100    38484695.540 6 162841338.14016        40.600
C02                                                                                                  36871664.550 6 192000435.69616        37.400    36871669.583 7 148466933.57017        46.400    36871662.631 6 156016070.40116        41.500
C01                                                                                                  37323079.260 6 194351068.23116        38.700    37323086.467 7 150284601.92817        44.100    37323078.774 6 157926157.94816        41.200
C06                                                                                                  36823674.484 7 191750532.11717        43.400    36823672.704 7 148273627.78017        44.800    36823663.799 7 155812988.12917        43.100
R12  20679913.267 7 110468382.26917        45.700    20679910.999 7 110468344.28117        45.400    20679927.818 7  85919864.80617        43.700    20679928.527 7  85919832.82617        42.800
R11  21265189.657 7 113634721.35417        47.000    21265187.256 7 113634669.36317        45.400    21265197.737 7  88382535.21617        45.800    21265197.363 7  88382549.21217        45.100
I02  39961200.353 6 156816320.55516        37.600
C43  24531455.490 6 128913617.41916        41.300    24531479.067 7  96266638.16317        44.400    24531459.865 7 127741739.79917        42.000                                                    24531464.459 7 103800603.09817        43.000    24531474.684 6  98778080.14916        40.800
C34  25170852.678 6 132273740.71516        41.600    25170872.415 6  98775900.59716        41.000    25170853.391 6 131071247.21216        39.600                                                    25170859.590 6 106506098.20316        40.900    25170868.687 6 101352641.88816        37.400
J04  35841940.660 7 188350676.73917        46.000    35841942.732 7 188350640.74117        47.500    35841939.921 7 188350677.12417        46.500    35841964.130 7 146766794.55817        47.200    35841963.697 8 140651508.06918        48.500
J07  36401594.895 6 191291668.05616        38.400    36401596.716 7 191291665.06517        42.400    36401590.741 7 191291677.79917        45.700    36401617.011 8 149058486.26718        49.100    36401616.411 8 142847712.12218        49.800
R13  23376987.724 6 124831867.16616        36.800    23376983.445 5 124831851.15915        35.100
G26  20192467.003 7 106112137.23617        46.400                                                                                                    20192488.076 7  82684806.61717        47.500    20192482.698 8  79239613.20018        50.100
J02  38433184.327 7 201967742.94717        46.200    38433185.694 8 201967519.93818        48.400    38433182.105 7 201967750.19817        46.800    38433203.662 8 157377502.43318        49.000    38433201.623 8 150820101.26318        49.600
R08  20846159.316 8 111630240.05418        48.700    20846157.400 7 111630197.07817        45.900    20846175.546 7  86823539.58017        46.100    20846174.913 7  86823503.59217        45.100
I10  36192341.161 7 142026521.06317        46.600
G28  22201105.918 7 116667611.76917        43.700    22201108.273 7 116667572.78217        44.300                                                    22201124.805 7  90909839.07617        45.300    22201125.981 8  87121914.97018        48.800
I09  38398399.349 7 150683568.93717        45.000
G32  22102927.566 7 116151682.35817        46.600                                                                                                    22102956.501 7  90507812.68017        45.700    22102953.384 7  86736624.54017        47.300
C03                                                                                                  36043130.785 6 187686049.67216        40.900    36043132.266 7 145130754.35617        44.400    36043124.928 7 152510255.34117        43.900
C59                                                                                                  36945011.414 7 192382366.85417        42.000                                                    36944995.208 7 156326366.87917        44.700    36945004.323 7 148762220.82817        44.600
C32  23423066.185 7 123088997.15417        46.300    23423080.396 8  91917316.06318        48.400    23423069.382 7 121970070.71717        45.900                                                    23423067.976 7  99110647.83617        46.100    23423077.919 7  94315024.41717        46.400
G29  24369039.165 6 128060173.19316        41.000                                                                                                    24369059.038 6  99787158.62116        38.800
C11                                                                                                  24978455.360 6 130069351.94416        37.700    24978474.590 7 100577959.20317        45.000    24978460.036 7 105692028.98817        42.800
C60                                                                                                  37422686.996 6 194869749.20716        41.600                                                    37422671.818 7 158347570.56017        44.700    37422683.563 7 150685639.04017        45.000
R02  22195739.928 7 118440739.92317        43.900    22195739.741 7 118440745.93117        43.700    22195755.234 7  92120598.06817        42.400    22195755.821 7  92120556.04917        43.200
G16  20427067.131 7 107344964.01917        44.900                                                    20427088.486 5  83645506.11215        35.400
R01  19201153.537 7 102641178.41417        46.400    19201151.034 7 102641131.41717        45.500    19201164.589 7  79832035.60217        43.300    19201165.948 6  79832004.61216        41.800
G27  23235864.341 6 122105285.05416        36.100                                                                                                    23235891.715 5  95146985.25115        35.100    23235889.164 6  91182528.03516        38.600
G31  21233298.308 7 111581742.78517        47.100                                                                                                    21233315.574 7  86946830.60517        45.500
E07  25705416.409 7 135082867.41117        44.600    25705440.739 7 100873551.89317        46.000    25705435.813 7 103504974.33717        46.600    25705440.324 8 102189302.40918        48.300    25705421.129 7 109645110.17917        45.700
E27  24873452.682 8 130710873.23818        48.000    24873463.115 7  97608776.77417        46.800    24873460.709 8 100155100.08618        48.000    24873463.657 8  98881882.22718        49.100    24873452.222 8 106096413.87418        49.400
E21  23563921.220 8 123829240.02518        49.500    23563936.097 8  92470090.54518        49.900    23563932.847 8  94882348.49418        51.000    23563936.607 8  93675991.31618        52.100    23563923.480 8 100510687.53118        52.700
E29  23194244.699 8 121886578.72518        50.200    23194255.723 8  91019194.87318        49.200    23194252.978 8  93393816.32718        50.100    23194256.118 8  92206343.39318        51.800    23194244.295 8  98933819.97118        51.700
E19  24658060.142 7 129578985.84617        43.200    24658071.851 7  96763498.98317        42.300    24658069.118 7  99287782.48917        43.400    24658072.174 7  98025609.53917        45.700    24658059.166 7 105177669.77617        43.000
> 2024 10 17  8 39 30.0000000  0 42       -.000360914000
C41  22264405.224 8 117000193.198 8        48.800    22264428.058 8  87370392.994 8        51.100    22264408.667 8 115936614.582 8        48.000                                                    22264412.255 7  94207969.852 7        47.000    22264424.811 7  89649612.157 7        46.800
C40  37111763.817 7 195023813.624 7        45.300    37111777.681 7 145634718.126 7        47.500    37111769.134 7 193250715.339 7        45.200                                                    37111765.623 7 157032012.837 7        44.500    37111774.193 7 149433737.639 7        42.600
C39  36749517.140 7 193120037.864 7        46.600    36749521.004 7 144213066.323 7        47.900    36749521.099 7 191364397.240 7        45.700                                                    36749510.899 7 155499219.802 7        45.100    36749519.354 7 147975084.396 7        45.400
C25  23591460.193 7 123973919.465 7        43.100    23591468.087 7  92577792.237 7        46.900    23591465.828 7 122846946.294 7        44.000                                                    23591457.774 7  99823184.938 7        44.000    23591465.195 7  94993051.555 7        42.700
C23  22695137.990 8 119263711.007 8        48.700    22695141.343 8  89060604.287 8        49.800    22695142.094 7 118179562.915 7        47.800                                                    22695129.218 7  96030547.533 7        46.200    22695138.834 7  91383916.938 7        46.700
C16                                                                                                  36964590.133 7 192484319.565 7        45.200    36964591.994 7 148841040.104 7        44.100    36964581.397 6 156409252.076 6        40.600
C13                                                                                                  38472854.751 6 200338246.826 6        39.400    38472870.811 7 154914194.191 7        42.700    38472857.701 6 162791210.452 6        39.600
C04                                                                                                  38484163.293 6 200397136.178 6        36.400    38484170.599 7 154959806.123 7        42.100    38484162.076 6 162839081.276 6        40.300
C02                                                                                                  36871207.216 6 191998053.179 6        37.500    36871212.107 7 148465091.349 7        46.100    36871204.946 6 156014134.480 6        41.000
C01                                                                                                  37322532.142 6 194348219.124 6        39.000    37322539.349 7 150282398.877 7        44.000    37322531.633 6 157923842.851 6        41.200
C06                                                                                                  36821335.979 7 191738356.615 7        43.600    36821334.314 7 148264212.935 7        44.200    36821325.571 7 155803094.553 7        43.100
R12  20678187.230 7 110459165.387 7        46.500    20678185.111 7 110459127.399 7        45.200    20678202.568 7  85912696.401 7        44.100    20678202.875 7  85912664.407 7        43.200
R11  21277344.956 7 113699678.636 7        46.800    21277343.751 7 113699626.646 7        46.000    21277352.549 7  88433057.564 7        45.000    21277353.403 7  88433071.568 7        44.900
I02  39957989.006 6 156803724.213 6        36.200
C43  24519767.415 6 128852189.066 6        41.600    24519789.213 7  96220766.504 7        43.600    24519772.026 7 127680869.936 7        42.300                                                    24519774.400 7 103751141.442 7        42.800    24519785.352 6  98731011.835 6        41.000
C34  25167789.520 6 132257651.597 6        41.100    25167809.863 6  98763886.502 6        41.100    25167792.547 6 131055304.321 6        40.400                                                    25167797.059 6 106493143.700 6        40.400    25167807.243 6 101340314.341 6        37.400
J04  35839146.537 7 188335996.477 7        44.300    35839148.833 7 188335960.471 7        47.100    35839146.002 7 188335996.869 7        46.200    35839170.767 7 146755355.400 7        47.500    35839170.354 8 140640545.533 8        49.100
J07  36400905.303 6 191288046.076 6        40.400    36400907.545 7 191288043.076 7        42.400    36400901.806 7 191288055.821 7        46.400    36400928.091 8 149055663.975 8        49.100    36400926.963 8 142845007.439 8        50.300
R13  23365161.591 6 124768722.409 6        36.400    23365159.680 5 124768706.406 5        35.000
G26  20197971.617 7 106141065.125 7        46.000                                                                                                    20197993.018 7  82707347.925 7        47.900    20197987.544 8  79261215.303 8        50.100
J02  38437193.622 7 201988815.386 7        44.300    38437195.413 8 201988592.384 8        48.600    38437191.846 7 201988822.637 7        46.900    38437213.735 8 157393922.565 8        48.700    38437211.550 8 150835837.231 8        49.600
R08  20865088.078 8 111731602.214 8        48.400    20865087.131 7 111731559.237 7        47.200    20865104.267 7  86902376.678 7        46.100    20865103.976 7  86902340.682 7        45.900
I10  36191329.690 8 142022551.896 8        49.000
G28  22205362.056 7 116689969.218 7        44.100    22205363.477 7 116689930.211 7        45.500                                                    22205380.725 7  90927260.374 7        47.300    22205380.999 8  87138610.364 8        49.200
I09  38397917.044 7 150681676.483 7        46.800
G32  22116283.128 7 116221864.918 7        46.200                                                                                                    22116310.136 7  90562500.267 7        43.200    22116308.842 7  86789033.428 7        47.300
C03                                                                                                  36042565.909 6 187683107.563 6        40.900    36042567.114 7 145128479.386 7        45.700    36042559.951 7 152507864.672 7        43.700
C59                                                                                                  36944564.244 7 192380039.831 7        42.100                                                    36944548.087 7 156324476.024 7        45.000    36944557.426 7 148760421.485 7        44.700
C32  23413305.301 7 123037701.101 7        46.400    23413319.473 8  91879010.541 8        49.000    23413308.631 7 121919240.998 7        46.100                                                    23413306.820 7  99069344.497 7        45.800    23413316.398 7  94275719.637 7        46.300
G29  24379225.048 6 128113707.556 6        40.700                                                                                                    24379247.147 6  99828873.862 6        39.900
C11                                                                                                  24969628.704 6 130023393.784 6        38.100    24969647.977 7 100542421.645 7        44.700    24969632.857 6 105654684.390 6        41.700
C60                                                                                                  37422227.918 6 194867357.977 6        41.400                                                    37422212.499 7 158345627.560 7        44.600    37422224.178 7 150683790.073 7        45.000
R02  22173711.196 7 118323188.180 7        43.900    22173710.450 7 118323194.161 7        43.700    22173727.670 7  92029168.982 7        43.300    22173726.466 7  92029126.990 7        42.500
G16  20419142.559 7 107303319.206 7        45.100                                                    20419163.826 6  83613055.828 6        36.200
R01  19197242.965 7 102620265.397 7        47.200    19197239.292 7 102620218.409 7        46.000    19197252.582 7  79815769.900 7        43.300    19197253.520 7  79815738.884 7        42.100
G27  23214530.784 6 121993183.479 6        36.100                                                                                                    23214559.885 6  95059633.626 6        36.800    23214556.964 6  91098816.084 6        40.100
G31  21232961.366 7 111579972.552 7        46.700                                                                                                    21232978.271 7  86945451.261 7        46.000
E07  25716148.999 7 135139268.822 7        44.600    25716173.450 7 100915669.693 7        46.600    25716168.705 7 103548190.898 7        46.800    25716173.367 8 102231969.588 8        48.900    25716154.214 7 109690890.458 7        45.400
E27  24884373.997 8 130768264.970 8        48.500    24884384.482 7  97651634.259 7        47.000    24884381.902 8 100199075.582 8        48.500    24884384.899 8  98925298.719 8        50.200    24884373.057 8 106142998.095 8        49.300
E21  23562369.492 8 123821085.842 8        49.800    23562384.235 8  92464001.533 8        50.500    23562380.974 8  94876100.625 8        51.100    23562384.782 8  93669822.875 8        52.500    23562371.834 8 100504068.996 8        52.700
E29  23192226.738 8 121875974.678 8        50.300    23192237.977 8  91011276.225 8        49.500    23192235.032 8  93385691.113 8        50.500    23192238.289 8  92198321.466 8        52.400    23192226.564 8  98925212.771 8        51.500
E19  24645226.926 7 129511547.906 7        43.300    24645238.776 7  96713139.608 7        42.400    24645235.832 7  99236109.360 7        43.600    24645239.001 7  97974593.285 7        45.500    24645226.001 7 105122931.273 7        43.100
> 2024 10 17  8 40  0.0000000  0 42       -.000363270000
C41  22272531.229 8 117042895.520 8        48.800    22272553.723 8  87402281.014 8        51.100    22272534.669 8 115978928.686 8        48.000                                                    22272538.334 7  94242353.486 7        47.300    22272550.884 7  89682332.044 7        46.800
C40  37103264.174 7 194979145.893 7        45.800    37103277.668 7 145601362.495 7        47.500    37103269.320 7 193206453.684 7        45.800                                                    37103265.796 7 156996046.725 7        45.000    37103273.947 7 149399511.864 7        42.200
C39  36746448.461 7 193103911.152 7        46.400    36746452.446 7 144201023.690 7        47.600    36746452.076 7 191348417.131 7        45.400                                                    36746442.078 7 155486234.681 7        45.000    36746450.519 7 147962727.597 7        44.900
C25  23600173.616 7 124019702.778 7        44.600    23600179.817 7  92611981.021 7        46.500    23600177.014 7 122892313.422 7        44.600                                                    23600170.102 7  99860049.385 7        43.800    23600177.958 7  95028132.227 7        42.900
C23  22695375.090 8 119264956.196 8        48.700    22695378.057 8  89061534.278 8        48.900    22695378.946 8 118180796.798 8        48.100                                                    22695365.946 7  96031550.263 7        45.900    22695375.816 7  91384871.170 7        46.700
C16                                                                                                  36961838.601 7 192469989.907 7        45.300    36961840.208 7 148829959.553 7        44.700    36961829.631 6 156397608.090 6        40.900
C13                                                                                                  38483055.968 6 200391374.482 6        38.200    38483073.223 7 154955275.834 7        42.500    38483060.420 6 162834381.001 6        40.300
C04                                                                                                  38483631.919 6 200394370.763 6        36.600    38483639.049 7 154957667.804 7        42.000    38483630.904 6 162836834.209 6        40.500
C02                                                                                                  36870752.801 6 191995685.942 6        37.300    36870757.378 7 148463260.941 7        46.100    36870750.433 6 156012210.987 6        41.500
C01                                                                                                  37321987.734 6 194345383.148 6        38.900    37321994.519 7 150280205.984 7        44.400    37321986.880 6 157921538.447 6        41.400
C06                                                                                                  36818985.085 7 191726112.980 7        42.900    36818983.030 7 148254745.412 7        44.900    36818974.238 7 155793145.623 7        42.900
R12  20676521.813 7 110450275.704 7        46.700    20676521.005 7 110450237.709 7        46.400    20676538.705 7  85905782.464 7        43.400    20676538.739 7  85905750.470 7        42.700
R11  21289505.592 8 113764654.790 8        48.000    21289503.489 7 113764602.808 7        46.800    21289513.480 7  88483594.599 7        45.700    21289513.143 7  88483608.588 7        45.100
I02  39954781.620 6 156791150.249 6        36.000
C43  24508101.765 6 128790894.081 6        41.800    24508124.886 7  96174994.405 7        44.200    24508109.223 7 127620132.151 7        42.800                                                    24508110.474 7 103701787.123 7        43.400    24508120.850 6  98684045.668 6        40.600
C34  25164797.830 6 132241930.854 6        41.600    25164818.085 7  98752147.561 7        42.100    25164801.330 6 131039726.561 6        39.700                                                    25164805.330 6 106480485.839 6        41.100    25164814.877 6 101328269.067 6        36.900
J04  35836371.874 7 188321416.265 7        44.900    35836373.961 7 188321380.267 7        47.400    35836371.534 7 188321416.653 7        45.600    35836396.070 7 146743994.188 7        47.200    35836395.757 8 140629657.696 8        48.600
J07  36400218.834 6 191284438.574 6        38.900    36400220.937 7 191284435.581 7        42.400    36400215.188 7 191284448.315 7        46.200    36400241.436 8 149052852.974 8        48.800    36400240.482 8 142842313.573 8        50.200
R13  23353392.140 5 124705882.876 5        35.200    23353391.805 5 124705866.903 5        33.800
G26  20203548.499 7 106170371.057 7        46.900                                                                                                    20203569.919 8  82730183.763 8        48.000    20203564.257 8  79283099.677 8        49.700
J02  38441206.563 7 202009900.944 7        45.000    38441208.097 8 202009677.951 8        48.400    38441204.536 7 202009908.195 7        47.200    38441225.716 8 157410352.907 8        48.700    38441223.955 8 150851582.983 8        49.500
R08  20884106.586 7 111833448.638 7        47.800    20884105.726 7 111833405.669 7        46.600    20884124.243 7  86981590.431 7        45.800    20884123.138 7  86981554.427 7        45.700
I10  36190321.637 8 142018595.650 8        49.200
G28  22209629.373 7 116712405.496 7        42.300    22209631.774 7 116712366.508 7        45.000                                                    22209650.748 7  90944743.137 7        47.200    22209650.358 8  87155364.646 8        49.200
I09  38397448.260 7 150679836.966 7        47.300
G32  22129713.995 7 116292449.893 7        45.300                                                                                                    22129742.278 7  90617501.429 7        44.300    22129740.436 7  86841742.838 7        46.300
C03                                                                                                  36042003.090 6 187680178.604 6        40.700    36042004.478 7 145126214.576 7        45.300    36041997.446 7 152505484.693 7        44.200
C59                                                                                                  36944120.059 7 192377726.597 7        42.000                                                    36944103.938 7 156322596.385 7        45.000    36944113.210 7 148758632.811 7        44.500
C32  23403629.045 7 122986851.133 7        46.700    23403643.030 8  91841038.162 8        48.800    23403632.380 7 121868853.322 7        47.100                                                    23403629.850 7  99028400.382 7        45.200    23403640.140 7  94236756.695 7        46.300
G29  24389498.299 6 128167691.638 6        40.900                                                                                                    24389518.605 6  99870939.526 6        36.300
C11                                                                                                  24960848.614 6 129977667.651 6        38.600    24960865.230 7 100507063.517 7        43.800    24960850.826 6 105617528.344 6        41.100
C60                                                                                                  37421771.142 6 194864980.522 6        41.500                                                    37421755.819 7 158343695.760 7        44.300    37421767.653 7 150681951.775 7        44.700
R02  22151746.518 7 118205968.151 7        44.700    22151744.317 7 118205974.166 7        43.900    22151760.381 7  91937997.940 7        42.900    22151759.563 7  91937955.928 7        42.300
G16  20411316.618 7 107262195.413 7        46.000                                                    20411337.863 5  83581011.512 5        35.800
R01  19193480.606 7 102600162.370 7        47.000    19193478.253 7 102600115.381 7        45.800    19193492.449 7  79800134.146 7        42.300    19193492.832 6  79800103.156 6        41.700
G27  23193208.835 6 121881137.233 6        36.800                                                                                                    23193237.519 6  94972325.143 6        37.100    23193235.038 6  91015145.493 6        40.900
G31  21232640.148 7 111578287.782 7        45.200                                                                                                    21232657.783 7  86944138.501 7        45.300
E07  25726930.487 7 135195926.539 7        44.400    25726955.321 7 100957978.904 7        46.000    25726950.512 7 103591603.826 7        46.800    25726954.987 8 102274830.657 8        48.400    25726935.085 7 109736878.800 7        44.900
E27  24895319.475 8 130825784.872 8        48.500    24895330.327 7  97694587.461 7        47.900    24895327.476 7 100243149.314 7        47.400    24895330.683 8  98968812.188 8        49.800    24895318.501 8 106189686.346 8        49.600
E21  23560878.526 8 123813250.311 8        50.100    23560893.294 8  92458150.484 8        50.300    23560889.590 8  94870096.916 8        51.500    23560893.595 8  93663895.495 8        52.600    23560880.423 8 100497709.090 8        52.900
E29  23190271.297 8 121865698.929 8        50.600    23190282.569 8  91003602.751 8        49.700    23190279.520 8  93377817.457 8        50.700    23190282.826 8  92190547.904 8        52.400    23190270.749 8  98916872.039 8        51.700
E19  24632420.820 7 129444253.133 7        42.100    24632432.727 7  96662887.115 7        42.100    24632429.826 7  99184545.919 7        43.800    24632433.081 7  97923685.311 7        45.300    24632419.919 7 105068308.961 7        43.000
> 2024 10 17  8 40 30.0000000  0 42       -.000365612000
C41  22280743.215 8 117086048.729 8        48.500    22280765.553 8  87434505.755 8        50.900    22280746.289 7 116021689.599 7        47.800                                                    22280750.276 7  94277100.173 7        47.200    22280762.684 7  89715397.436 7        46.800
C40  37094787.129 7 194934600.075 7        45.800    37094800.765 7 145568097.918 7        47.500    37094792.213 7 193162312.830 7        45.600                                                    37094788.958 7 156960178.779 7        45.000    37094796.630 7 149365379.487 7        42.100
C39  36743370.744 7 193087736.654 7        46.400    36743374.334 8 144188945.376 8        48.400    36743374.782 7 191332389.681 7        45.700                                                    36743364.181 7 155473211.095 7        45.200    36743372.366 7 147950334.188 7        44.900
C25  23608881.549 7 124065466.027 7        44.500    23608888.368 7  92646154.819 7        46.700    23608885.405 7 122937660.622 7        44.400                                                    23608878.366 7  99896897.693 7        44.000    23608886.554 7  95063197.539 7        43.000
C23  22695634.283 8 119266319.824 8        48.700    22695637.391 8  89062552.727 8        49.300    22695638.515 8 118182148.032 8        48.600                                                    22695625.385 7  96032648.365 7        46.100    22695635.012 7  91385916.165 7        46.700
C16                                                                                                  36959073.296 7 192455594.511 7        45.400    36959075.567 7 148818828.150 7        44.700    36959064.971 6 156385910.669 6        40.900
C13                                                                                                  38493264.011 6 200444528.000 6        38.300    38493280.596 7 154996377.450 7        42.600    38493267.875 6 162877572.544 6        40.400
C04                                                                                                  38483103.931 6 200391620.614 6        36.000    38483111.043 7 154955541.301 7        42.100    38483102.767 6 162834599.555 6        41.400
C02                                                                                                  36870302.208 6 191993337.108 6        37.300    36870306.286 7 148461444.767 7        45.900    36870299.184 6 156010302.435 6        41.800
C01                                                                                                  37321445.834 6 194342563.487 6        38.700    37321452.954 7 150278025.704 7        43.500    37321445.359 6 157919247.295 6        41.300
C06                                                                                                  36816621.054 7 191713804.518 7        44.100    36816619.159 7 148245227.743 7        44.100    36816610.295 7 155783144.000 7        42.800
R12  20674919.137 7 110441714.123 7        46.000    20674918.006 7 110441676.113 7        45.700    20674935.852 7  85899123.724 7        45.100    20674936.081 7  85899091.729 7        43.900
R11  21301667.333 7 113829650.584 7        47.300    21301666.288 7 113829598.579 7        46.500    21301676.477 7  88534146.846 7        46.400    21301676.183 7  88534160.851 7        45.500
I02  39951586.551 5 156778601.258 5        35.900
C43  24496461.845 6 128729737.997 6        41.300    24496486.672 7  96129326.037 7        43.900    24496468.520 6 127559532.027 6        41.600                                                    24496471.891 7 103652544.668 7        43.400    24496483.005 6  98637185.927 6        40.900
C34  25161877.785 6 132226583.125 6        41.400    25161898.853 7  98740687.118 7        43.200    25161881.751 6 131024518.383 6        41.500                                                    25161884.329 6 106468128.341 6        41.200    25161895.006 6 101316509.631 6        38.300
J04  35833617.139 7 188306939.336 7        44.700    35833618.973 7 188306903.321 7        47.000    35833616.284 7 188306939.729 7        46.100    35833641.315 7 146732713.444 7        47.200    35833640.747 8 140618846.995 8        48.200
J07  36399536.246 6 191280848.760 6        40.100    36399537.826 7 191280845.769 7        42.400    36399532.421 7 191280858.505 7        45.800    36399558.359 8 149050055.760 8        49.400    36399557.334 8 142839632.905 8        50.300
R13  23341685.990 6 124643350.869 6        36.300    23341682.669 5 124643334.884 5        35.600
G26  20209197.740 7 106200056.006 7        47.100                                                                                                    20209219.087 8  82753314.977 8        48.100    20209213.062 8  79305267.107 8        50.200
J02  38445220.731 7 202031002.479 7        44.700    38445223.176 8 202030779.470 8        48.300    38445219.407 7 202031009.729 7        46.000    38445241.089 8 157426795.698 8        48.000    38445239.495 8 150867340.671 8        49.200
R08  20903216.113 7 111935779.035 7        47.800    20903214.422 7 111935736.052 7        45.400    20903232.833 7  87061180.578 7        45.600    20903232.737 7  87061144.583 7        45.500
I10  36189316.931 8 142014654.684 8        48.800
G28  22213915.762 7 116734924.628 7        42.700    22213917.767 7 116734885.612 7        44.600                                                    22213934.425 7  90962290.440 7        45.200    22213935.581 8  87172180.780 8        48.800
I09  38396993.757 7 150678052.755 7        47.200
G32  22143223.514 7 116363439.075 7        45.800                                                                                                    22143251.164 7  90672817.514 7        44.100    22143249.518 7  86894754.123 7        46.900
C03                                                                                                  36041443.077 6 187677265.887 6        40.700    36041445.104 7 145123962.333 7        45.900    36041438.031 7 152503117.921 7        43.800
C59                                                                                                  36943678.988 7 192375430.356 7        42.100                                                    36943663.019 7 156320730.546 7        45.200    36943672.271 7 148756857.270 7        44.600
C32  23394037.701 7 122936451.974 7        46.000    23394051.837 7  91803402.407 7        47.900    23394041.635 7 121818912.328 7        46.200                                                    23394039.783 7  98987819.225 7        46.000    23394049.890 7  94198139.127 7        47.300
G29  24399857.066 6 128222127.366 6        38.900                                                                                                    24399878.133 6  99913357.148 6        37.300
C11                                                                                                  24952113.088 6 129932178.869 6        39.000    24952129.327 7 100471888.912 7        44.900    24952114.219 6 105580565.164 6        41.200
C60                                                                                                  37421318.315 6 194862620.051 6        41.600                                                    37421302.382 7 158341777.750 7        44.700    37421314.262 7 150680126.598 7        44.900
R02  22129840.091 7 118089087.561 7        44.600    22129840.617 7 118089093.575 7        43.800    22129856.982 7  91847090.898 7        43.700    22129856.055 7  91847048.884 7        42.600
G16  20403591.026 7 107221596.007 7        46.000                                                    20403612.079 5  83549375.815 5        35.700
R01  19189871.769 7 102580873.988 7        47.300    19189869.978 7 102580826.999 7        46.000    19189884.806 7  79785132.036 7        42.800    19189884.843 7  79785101.040 7        42.200
G27  23171897.417 6 121769152.571 6        37.600                                                                                                    23171927.711 6  94885064.593 6        38.200    23171925.003 7  90931520.861 7        42.000
G31  21232337.553 7 111576691.354 7        45.400                                                                                                    21232353.595 7  86942894.563 7        44.900
E07  25737761.742 7 135252843.117 7        45.200    25737785.629 7 101000481.445 7        45.600    25737781.716 7 103635215.148 7        46.700    25737786.004 8 102317887.601 8        48.200    25737766.685 7 109783077.226 7        45.500
E27  24906289.727 7 130883434.511 7        47.900    24906300.626 7  97737637.549 7        47.800    24906297.677 8 100287322.457 8        48.000    24906301.131 8  99012423.798 8        49.700    24906289.118 8 106236479.907 8        49.600
E21  23559448.776 8 123805735.777 8        50.800    23559463.386 8  92452539.126 8        50.400    23559459.399 8  94864339.169 8        50.700    23559463.524 8  93658210.948 8        52.500    23559449.987 8 100491609.734 8        52.400
E29  23188379.358 8 121855755.656 8        50.600    23188390.428 8  90996177.553 8        49.900    23188387.441 8  93370198.556 8        50.400    23188390.684 8  92183025.852 8        52.200    23188378.618 8  98908801.180 8        51.400
E19  24619643.207 7 129377106.650 7        42.800    24619655.356 6  96612745.356 6        41.400    24619652.328 7  99133096.104 7        43.400    24619655.453 7  97872889.531 7        45.500    24619642.104 7 105013807.019 7        42.700
> 2024 10 17  8 41  0.0000000  0 42       -.000367941000
C41  22289041.615 8 117129658.265 8        48.600    22289064.480 8  87467071.240 8        50.700    22289044.874 8 116064902.672 8        48.500                                                    22289048.842 7  94312214.288 7        46.800    22289061.504 7  89748812.462 7        47.100
C40  37086335.703 7 194890183.633 7        46.500    37086348.040 7 145534929.938 7        46.800    37086340.070 7 193118300.181 7        46.000                                                    37086336.475 7 156924415.011 7        45.200    37086344.816 7 149331346.245 7        42.300
C39  36740284.741 7 193071521.691 7        46.500    36740288.656 7 144176836.819 7        47.800    36740288.697 7 191316322.108 7        46.400                                                    36740278.455 7 155460154.904 7        44.700    36740286.758 7 147937909.755 7        45.100
C25  23617587.052 7 124111215.683 7        44.500    23617594.290 7  92680318.480 7        46.600    23617592.803 7 122982994.356 7        45.400                                                    23617584.663 7  99933735.031 7        44.600    23617592.855 7  95098252.410 7        43.200
C23  22695916.944 8 119267807.767 8        48.500    22695920.123 8  89063664.007 8        49.600    22695922.053 8 118183622.458 8        48.500                                                    22695908.457 7  96033846.565 7        45.800    22695918.073 7  91387056.405 7        47.000
C16                                                                                                  36956297.847 7 192441140.429 7        45.500    36956299.906 7 148807651.364 7        44.700    36956289.191 6 156374165.568 6        41.400
C13                                                                                                  38503477.486 6 200497713.422 6        39.000    38503494.395 7 155037503.744 7        42.600    38503481.913 6 162920790.030 6        40.400
C04                                                                                                  38482579.645 6 200388892.558 6        36.200    38482586.910 7 154953431.875 7        42.100    38482578.677 6 162832382.850 6        41.200
C02                                                                                                  36869855.614 6 191991013.770 6        37.000    36869859.925 7 148459648.305 7        46.000    36869852.874 6 156008414.609 6        41.400
C01                                                                                                  37320908.922 6 194339766.994 6        38.900    37320916.043 7 150275863.345 7        44.000    37320908.364 6 157916974.961 6        41.600
C06                                                                                                  36814246.201 7 191701438.281 7        43.700    36814244.524 7 148235665.415 7        44.900    36814235.801 7 155773095.448 7        43.000
R12  20673378.306 7 110433485.367 7        47.200    20673377.250 7 110433447.380 7        46.400    20673396.231 7  85892723.869 7        45.400    20673395.302 7  85892691.867 7        44.400
R11  21313835.899 8 113894671.330 8        48.200    21313833.975 7 113894619.341 7        46.800    21313843.802 7  88584718.540 7        46.000    21313843.787 7  88584732.536 7        45.100
I02  39948396.201 6 156766082.959 6        37.400
C43  24484853.991 7 128668730.264 7        42.200    24484877.759 7  96083768.455 7        44.300    24484857.704 6 127499078.906 6        41.600                                                    24484862.533 7 103603421.677 7        42.900    24484874.022 6  98590439.885 6        41.400
C34  25159028.699 6 132211616.741 6        40.700    25159050.437 7  98729511.436 7        42.600    25159035.264 7 131009688.084 7        42.200                                                    25159035.248 6 106456077.873 6        41.100    25159045.739 6 101305042.348 6        37.800
J04  35830883.104 7 188292572.628 7        44.700    35830885.074 7 188292536.626 7        47.000    35830882.069 7 188292573.017 7        45.800    35830907.366 7 146721518.603 7        47.700    35830906.978 8 140608118.609 8        48.900
J07  36398856.430 6 191277283.564 6        39.700    36398859.312 7 191277280.566 7        42.600    36398853.583 7 191277293.319 7        46.100    36398879.912 8 149047277.728 8        49.000    36398878.835 8 142836970.637 8        50.700
R13  23330032.497 6 124581133.252 6        37.400    23330030.879 5 124581117.270 5        35.700
G26  20214920.031 7 106230124.877 7        47.800                                                                                                    20214941.000 7  82776745.348 7        47.800    20214934.689 8  79327721.228 8        49.500
J02  38449241.558 7 202052126.609 7        45.900    38449243.146 8 202051903.608 8        48.100    38449239.679 7 202052133.853 7        45.900    38449261.063 8 157443256.087 8        48.100    38449259.355 8 150883115.220 8        49.700
R08  20922415.690 7 112038596.544 7        47.200    20922415.181 7 112038553.575 7        46.200    20922433.945 7  87141149.603 7        46.500    20922433.038 7  87141113.614 7        45.000
I10  36188317.710 7 142010734.231 7        47.900
G28  22218218.067 6 116757534.255 6        41.800    22218220.148 7 116757495.268 7        45.200                                                    22218237.987 7  90979908.233 7        46.500    22218238.081 8  87189064.500 8        49.100
I09  38396554.688 7 150676329.140 7        47.000
G32  22156811.494 7 116434838.114 7        46.300                                                                                                    22156838.684 7  90728453.036 7        43.900    22156836.000 7  86948071.406 7        46.500
C03                                                                                                  36040888.808 6 187674376.329 6        40.700    36040889.905 7 145121728.005 7        45.400    36040883.084 7 152500769.958 7        44.100
C59                                                                                                  36943242.265 6 192373157.972 6        41.800                                                    36943226.564 7 156318884.094 7        45.100    36943235.819 7 148755100.171 7        44.700
C32  23384534.696 7 122886511.948 7        46.200    23384549.276 8  91766109.524 8        49.100    23384538.580 7 121769426.286 7        45.800                                                    23384536.444 7  98947607.752 7        46.000    23384546.261 7  94159873.367 7        46.900
G29  24410301.240 5 128277020.040 5        34.100                                                                                                    24410324.193 6  99956130.741 6        36.400
C11                                                                                                  24943423.095 6 129886936.663 6        37.200    24943442.449 7 100436905.045 7        45.300    24943426.290 7 105543802.407 7        42.000
C60                                                                                                  37420869.543 6 194860283.420 6        41.700                                                    37420853.527 7 158339879.126 7        44.800    37420865.418 7 150678319.854 7        45.000
R02  22108002.416 7 117972557.042 7        44.500    22108002.534 7 117972563.048 7        44.300    22108018.872 7  91756456.126 7        43.100    22108018.393 6  91756414.123 6        41.800
G16  20395966.015 7 107181527.865 7        47.000                                                    20395986.963 6  83518154.096 6        36.000
R01  19186417.650 7 102562408.366 7        47.000    19186415.571 7 102562361.379 7        44.800    19186430.178 7  79770769.844 7        42.800    19186430.549 7  79770738.842 7        42.500
G27  23150600.376 6 121657239.438 6        37.700                                                                                                    23150630.820 6  94797859.816 6        39.200    23150628.471 7  90847949.673 7        43.200
G31  21232052.028 7 111575190.748 7        44.300                                                                                                    21232068.160 7  86941725.309 7        45.000
E07  25748642.498 7 135310024.912 7        45.100    25748666.879 7 101043182.021 7        45.300    25748663.103 7 103679029.669 7        47.000    25748667.487 8 102361145.137 8        48.500    25748648.931 7 109829490.944 7        46.600
E27  24917285.106 7 130941219.229 7        47.700    24917296.737 8  97780788.497 8        48.000    24917293.860 7 100331599.091 7        47.900    24917297.322 8  99056137.592 8        50.700    24917284.810 8 106283383.123 8        49.600
E21  23558080.546 8 123798548.308 8        50.600    23558095.592 8  92447172.008 8        50.900    23558091.669 8  94858832.015 8        50.700    23558095.648 8  93652773.810 8        52.500    23558082.267 8 100485775.857 8        52.500
E29  23186551.862 8 121846152.796 8        50.100    23186563.111 8  90989006.554 8        50.000    23186560.040 8  93362840.494 8        50.600    23186563.359 8  92175761.316 8        52.300    23186551.312 8  98901006.632 8        51.300
E19  24606895.402 7 129310116.771 7        43.000    24606907.487 6  96562720.529 6        41.700    24606904.445 7  99081766.290 7        44.400    24606907.607 7  97822212.207 7        45.600    24606894.138 7 104959432.196 7        42.700
> 2024 10 17  8 41 30.0000000  0 42       -.000370256000
C41  22297424.957 8 117173714.625 8        48.000    22297448.197 8  87499970.407 8        50.800    22297428.550 8 116108558.513 8        48.100                                                    22297432.228 7  94347688.195 7        46.900    22297445.293 7  89782569.879 7        47.200
C40  37077906.334 7 194845889.053 7        46.700    37077919.279 7 145501852.967 7        47.200    37077910.357 7 193074408.277 7        45.200                                                    37077907.250 7 156888749.358 7        45.200    37077915.457 7 149297406.376 7        42.300
C39  36737190.075 7 193055258.576 7        46.300    36737193.835 8 144164692.322 8        48.000    36737193.275 7 191300206.849 7        45.800                                                    36737183.537 7 155447059.956 7        44.800    36737191.809 7 147925448.433 7        44.900
C25  23626289.144 7 124156943.266 7        44.900    23626296.306 7  92714465.650 7        46.500    23626294.583 7 123028306.238 7        45.200                                                    23626286.184 7  99970554.610 7        44.100    23626294.062 7  95133290.391 7        42.900
C23  22696222.198 8 119269410.860 8        48.100    22696224.874 8  89064861.262 8        48.700    22696226.229 7 118185210.979 7        47.900                                                    22696213.209 7  96035137.462 7        45.900    22696223.411 7  91388284.870 7        47.200
C16                                                                                                  36953509.124 7 192426619.996 7        45.600    36953511.376 7 148796423.268 7        45.200    36953500.632 6 156362366.557 6        41.600
C13                                                                                                  38513695.973 6 200550922.305 6        38.400    38513712.957 7 155078648.180 7        43.400    38513700.174 6 162964026.568 6        41.100
C04                                                                                                  38482059.250 6 200386178.738 6        36.400    38482065.559 6 154951333.461 6        41.300    38482057.704 6 162830177.715 6        41.100
C02                                                                                                  36869412.205 6 191988707.916 6        37.500    36869417.076 7 148457865.357 7        45.900    36869409.973 6 156006540.983 6        41.600
C01                                                                                                  37320374.827 6 194336985.780 6        38.700    37320381.861 7 150273712.795 7        43.700    37320374.242 6 157914715.046 6        41.200
C06                                                                                                  36811859.312 7 191689006.477 7        43.900    36811856.924 7 148226052.386 7        45.200    36811848.487 7 155762993.610 7        43.200
R12  20671899.166 7 110425579.519 7        46.800    20671897.179 7 110425541.524 7        46.900    20671914.631 7  85886575.106 7        44.700    20671915.038 7  85886543.104 7        44.000
R11  21326006.757 7 113959706.449 7        47.800    21326004.478 7 113959654.444 7        47.000    21326014.123 7  88635301.388 7        45.100    21326013.871 7  88635315.406 7        44.700
I02  39945212.096 6 156753588.980 6        36.000
C43  24473272.069 7 128607865.336 7        42.200    24473295.606 7  96038317.538 7        44.600    24473275.844 6 127438767.289 6        41.200                                                    24473280.122 7 103554413.664 7        43.600    24473292.277 6  98543803.265 6        41.400
C34  25156249.562 6 132197025.089 6        40.200    25156272.567 7  98718615.567 7        43.300    25156257.675 6 130995229.087 6        41.500                                                    25156258.078 6 106444329.105 6        41.100    25156267.933 6 101293862.181 6        37.900
J04  35828168.954 7 188278308.193 7        45.100    35828170.945 7 188278272.183 7        46.800    35828168.185 7 188278308.586 7        45.900    35828193.379 7 146710403.456 7        47.500    35828192.787 8 140597466.591 8        48.800
J07  36398181.877 6 191273735.070 6        39.900    36398184.105 7 191273732.083 7        42.300    36398178.161 7 191273744.815 7        46.400    36398204.508 8 149044512.700 8        49.100    36398203.496 8 142834320.831 8        49.500
R13  23318438.802 6 124519221.151 6        37.700    23318436.995 6 124519205.162 6        36.300
G26  20220712.665 8 106260567.550 8        48.000                                                                                                    20220733.581 8  82800466.983 8        48.100    20220727.674 8  79350454.483 8        49.900
J02  38453263.662 7 202073265.000 7        44.700    38453265.492 8 202073042.000 8        48.300    38453261.900 7 202073272.244 7        45.400    38453283.776 8 157459727.622 8        48.400    38453281.929 8 150898900.452 8        49.700
R08  20941705.368 7 112141889.384 7        47.600    20941704.374 7 112141846.407 7        45.500    20941723.491 7  87221488.354 7        45.500    20941722.481 7  87221452.357 7        45.300
I10  36187322.311 7 142006828.315 7        46.000
G28  22222537.534 7 116780227.254 7        42.100    22222538.344 7 116780188.240 7        45.400                                                    22222557.127 7  90997591.000 7        47.800    22222557.165 8  87206010.446 8        48.700
I09  38396129.029 7 150674660.263 7        42.700
G32  22170473.143 7 116506637.584 7        45.700                                                                                                    22170502.035 7  90784400.541 7        44.400    22170498.804 7  87001687.769 7        46.500
C03                                                                                                  36040336.275 6 187671502.034 6        40.800    36040337.982 7 145119505.481 7        45.200    36040331.061 7 152498434.399 7        44.100
C59                                                                                                  36942809.198 7 192370901.495 7        42.100                                                    36942793.014 7 156317050.559 7        45.300    36942802.474 7 148753355.365 7        44.600
C32  23375117.646 7 122837024.524 7        45.800    23375131.888 8  91729154.590 8        48.600    23375121.207 7 121720388.772 7        45.200                                                    23375119.020 7  98907760.738 7        46.000    23375128.837 7  94121954.436 7        46.600
G29  24420833.185 5 128332360.03915        33.700                                                                                                    24420858.241 6  99999253.046 6        37.000
C11                                                                                                  24934781.266 6 129841935.495 6        37.700    24934799.549 7 100402107.566 7        44.900    24934785.338 7 105507235.478 7        42.900
C60                                                                                                  37420423.587 6 194857962.717 6        41.600                                                    37420407.845 7 158337993.431 7        44.600    37420419.639 7 150676525.425 7        44.700
R02  22086230.604 7 117856373.266 7        45.300    22086230.096 7 117856379.270 7        43.800    22086245.290 7  91666091.017 7        43.200    22086245.384 7  91666049.027 7        42.400
G16  20388440.664 7 107141982.985 7        46.600                                                    20388461.506 6  83487340.110 6        36.000
R01  19183116.214 7 102544758.547 7        46.300    19183113.596 7 102544711.561 7        45.400    19183127.922 7  79757042.174 7        42.900    19183128.488 7  79757011.170 7        42.000
G27  23129317.417 6 121545392.998 6        39.200                                                                                                    23129347.306 6  94710706.999 6        39.100    23129345.264 7  90764428.265 7        44.000
G31  21231781.023 7 111573777.856 7        43.900                                                                                                    21231799.725 7  86940624.414 7        45.800
E07  25759572.266 7 135367463.285 7        44.900    25759596.524 7 101086074.226 7        45.100    25759594.095 7 103723040.785 7        47.100    25759597.608 8 102404596.804 8        48.300    25759578.344 7 109876112.919 7        45.800
E27  24928305.137 8 130999129.389 8        48.000    24928316.724 7  97824033.139 7        47.900    24928313.574 8 100375971.854 8        48.700    24928317.270 8  99099946.298 8        50.100    24928304.801 8 106330388.155 8        49.800
E21  23556773.331 8 123791679.050 8        50.300    23556788.045 8  92442042.508 8        50.700    23556784.337 8  94853568.683 8        50.800    23556788.318 8  93647577.396 8        52.500    23556775.217 8 100480200.268 8        52.700
E29  23184787.951 8 121836883.345 8        50.600    23184799.270 8  90982084.527 8        49.300    23184796.351 8  93355737.905 8        50.200    23184799.506 8  92168749.016 8        52.300    23184787.578 8  98893482.711 8        51.400
E19  24594175.914 7 129243277.668 7        42.700    24594188.299 7  96512808.318 7        42.500    24594185.374 7  99030551.986 7        44.000    24594188.461 7  97771648.944 7        45.300    24594174.954 7 104905179.739 7        42.800
> 2024 10 17  8 42  0.0000000  0 44       -.000372561000
C41  22305894.214 8 117218219.022 8        48.400    22305916.761 8  87533204.160 8        50.100    22305898.196 8 116152658.317 8        49.000                                                    22305901.075 7  94383522.859 7        46.600    22305914.279 7  89816670.597 7        47.000
C40  37069501.338 7 194801719.596 7        46.700    37069513.675 7 145468869.440 7        46.600    37069505.127 7 193030640.365 7        45.200                                                    37069501.661 7 156853184.447 7        45.000    37069510.111 7 149263562.381 7        42.000
C39  36734086.707 7 193038950.435 7        46.600    36734090.662 8 144152514.192 8        48.000    36734090.572 7 191284046.969 7        46.300                                                    36734080.090 7 155433928.751 7        44.800    36734088.404 7 147912952.622 7        44.600
C25  23634986.732 7 124202651.123 7        44.300    23634994.307 7  92748598.108 7        46.000    23634992.246 7 123073598.592 7        45.100                                                    23634984.714 7 100007358.327 7        44.100    23634991.980 7  95168313.269 7        42.800
C23  22696549.265 8 119271130.879 8        48.400    22696552.022 8  89066145.828 8        48.700    22696553.153 7 118186915.348 7        47.800                                                    22696540.330 7  96036522.511 7        45.200    22696550.353 7  91389602.932 7        46.700
C16                                                                                                  36950708.538 7 192412036.205 7        45.200    36950710.892 7 148785146.189 7        45.200    36950699.956 6 156350516.046 6        41.100
C13                                                                                                  38523919.733 6 200604156.444 6        39.800    38523936.034 7 155119812.150 7        43.400    38523923.082 6 163007283.633 6        39.900
C04                                                                                                  38481540.616 6 200383481.854 6        36.300    38481547.526 6 154949248.122 6        41.000    38481539.598 6 162827986.335 6        40.400
C02                                                                                                  36868973.344 6 191986422.365 6        37.000    36868978.099 7 148456098.124 7        45.600    36868971.075 6 156004683.859 6        41.100
C01                                                                                                  37319844.349 6 194334222.588 6        38.800    37319851.094 7 150271576.184 7        43.900    37319843.466 6 157912469.789 6        40.900
C06                                                                                                  36809459.785 7 191676512.043 7        43.400    36809457.373 7 148216390.922 7        44.600    36809448.990 7 155752840.887 7        43.000
R12  20670478.505 7 110417997.026 7        46.300    20670476.922 7 110417959.024 7        46.000    20670494.560 7  85880677.891 7        45.100    20670494.740 7  85880645.889 7        44.000
R11  21338181.533 8 114024756.997 8        49.100    21338178.152 7 114024704.986 7        46.600    21338186.551 7  88685896.237 7        45.800    21338187.016 7  88685910.250 7        44.400
R21  23549266.507 6 126016847.55716        38.800    23549260.559 6 126016836.55216        36.600    23549291.022 5  98013293.05915        35.500    23549292.147 5  98013234.07415        35.400    23549283.393 5  94421352.61215        35.500
I02  39942033.659 6 156741121.444 6        36.700
C43  24461717.995 7 128547148.474 7        42.500    24461741.496 7  95992977.188 7        44.500    24461723.196 7 127378602.421 7        42.800                                                    24461726.656 7 103505524.885 7        43.000    24461737.280 6  98497280.109 6        41.100
C37
C34  25153545.457 6 132182812.129 6        39.200    25153567.911 7  98708002.500 7        43.300    25153550.110 6 130981145.342 6        39.800                                                    25153553.466 6 106432885.272 6        40.400    25153562.808 6 101282972.186 6        37.900
J04  35825474.243 7 188264148.746 7        44.500    35825475.961 7 188264112.736 7        46.600    35825473.114 7 188264149.134 7        45.700    35825498.731 7 146699370.125 7        47.900    35825498.349 8 140586892.975 8        48.000
J07  36397510.806 6 191270205.981 6        40.400    36397512.329 7 191270202.982 7        42.400    36397506.589 7 191270215.723 7        45.900    36397532.815 8 149041762.806 8        49.000    36397531.971 8 142831685.528 8        49.800
R13  23306903.002 6 124457616.868 6        37.600    23306900.660 6 124457600.898 6        36.600
G26  20226576.863 8 106291384.651 8        48.400                                                                                                    20226597.824 7  82824480.398 7        47.900    20226592.336 8  79373467.358 8        49.500
J02  38457289.359 7 202094420.141 7        45.000    38457291.197 8 202094197.140 8        48.500    38457287.559 7 202094427.392 7        45.400    38457308.702 8 157476212.188 8        48.600    38457307.625 8 150914698.179 8        49.300
R08  20961083.293 7 112245656.705 7        46.000    20961082.058 7 112245613.736 7        45.500    20961100.985 7  87302196.102 7        46.600    20961100.934 7  87302160.099 7        46.000
I10  36186331.017 7 142002939.004 7        45.800
G28  22226872.083 7 116803007.062 7        42.300    22226873.701 7 116802968.066 7        45.700                                                    22226891.103 7  91015341.394 7        46.200    22226892.228 8  87223021.247 8        48.300
I09  38395719.147 7 150673048.213 7        43.800
G32  22184213.119 7 116578838.893 7        45.400                                                                                                    22184240.673 7  90840661.165 7        43.800    22184238.308 7  87055604.165 7        46.300
C03                                                                                                  36039787.609 6 187668645.715 6        40.800    36039789.455 7 145117296.854 7        44.800    36039782.442 7 152496113.475 7        43.800
C59                                                                                                  36942379.352 7 192368663.705 7        42.000                                                    36942363.343 7 156315232.216 7        44.600    36942372.642 7 148751625.020 7        44.500
C32  23365787.595 7 122787993.910 7        45.800    23365801.412 7  91692540.782 7        47.800    23365791.511 7 121671803.870 7        46.000                                                    23365788.936 7  98868281.506 7        45.800    23365799.290 7  94084385.479 7        47.100
G29  24431451.715 5 128388148.925 5        35.700                                                                                                    24431475.959 5 100042725.132 5        35.500
C11                                                                                                  24926186.738 6 129797180.435 6        38.300    24926204.620 7 100367500.357 7        45.600    24926189.876 7 105470868.506 7        42.400
C60                                                                                                  37419981.261 6 194855660.672 6        41.600                                                    37419965.677 7 158336122.901 7        44.100    37419977.493 7 150674745.429 7        44.600
R02  22064523.480 7 117740543.105 7        44.500    22064523.600 7 117740549.124 7        43.900    22064537.393 7  91576000.989 7        42.900    22064538.873 7  91575958.979 7        42.100
G16  20381015.601 7 107102964.013 7        47.300                                                    20381036.375 6  83456935.921 6        36.100
R01  19179968.529 7 102527928.521 7        46.700    19179965.123 7 102527881.540 7        44.900    19179980.184 7  79743952.100 7        42.600    19179980.212 7  79743921.100 7        42.200
G27  23108047.701 6 121433619.065 6        40.700                                                                                                    23108076.670 6  94623610.691 6        39.400    23108075.686 7  90680961.015 7        44.100
G31  21231530.650 7 111572455.813 7        44.300                                                                                                    21231547.684 7  86939594.301 7        45.100
E07  25770551.259 7 135425160.417 7        43.700    25770575.934 7 101129159.639 7        43.800    25770572.913 7 103767250.199 7        46.200    25770577.204 7 102448244.221 7        47.400    25770558.884 7 109922944.942 7        46.700
E27  24939348.842 8 131057166.179 8        48.000    24939360.824 7  97867372.344 7        47.800    24939357.643 8 100420441.649 8        48.300    24939361.284 8  99143850.799 8        49.600    24939349.295 8 106377495.968 8        49.800
E21  23555526.575 8 123785129.891 8        50.200    23555541.811 8  92437152.048 8        50.000    23555537.654 8  94848550.634 8        50.700    23555541.902 8  93642623.138 8        52.000    23555528.914 8 100474884.491 8        52.800
E29  23183088.107 8 121827951.055 8        50.600    23183099.607 8  90975414.284 8        49.100    23183096.845 8  93348893.658 8        50.900    23183099.779 8  92161991.765 8        51.700    23183087.776 8  98886232.455 8        51.300
E19  24581486.072 7 129176593.497 7        43.200    24581498.931 6  96463011.778 6        41.800    24581495.803 7  98979456.404 7        44.300    24581498.823 7  97721202.898 7        45.200    24581485.875 7 104851053.032 7        42.700
> 2024 10 17  8 42 30.0000000  0 45       -.000374851000
C41  22314447.555 8 117263167.383 8        48.500    22314470.573 8  87566769.438 8        50.100    22314451.367 8 116197198.063 8        48.800                                                    22314454.418 7  94419715.017 7        46.500    22314467.710 7  89851111.502 7        47.500
C40  37061118.759 7 194757673.279 7        46.400    37061131.321 7 145435977.856 7        46.400    37061123.467 7 192986994.453 7        44.900                                                    37061119.631 7 156817718.688 7        44.700    37061128.252 7 149229812.734 7        42.500
C39  36730974.213 7 193022595.070 7        46.400    36730978.207 7 144140300.801 7        47.900    36730978.470 7 191267840.295 7        46.100                                                    36730967.836 7 155420759.521 7        45.000    36730976.135 7 147900420.614 7        45.100
C25  23643680.644 7 124248336.257 7        44.000    23643688.028 7  92782713.583 7        46.500    23643685.993 7 123118868.400 7        45.600                                                    23643678.103 7 100044143.728 7        43.800    23643685.252 7  95203318.730 7        43.100
C23  22696898.066 8 119272964.169 8        48.400    22696901.125 8  89067514.985 8        49.200    22696902.092 7 118188732.000 7        47.600                                                    22696888.923 7  96037998.774 7        45.700    22696899.185 7  91391007.786 7        47.200
C16                                                                                                  36947894.859 7 192397386.753 7        44.700    36947897.212 7 148773818.332 7        44.100    36947886.565 6 156338612.198 6        40.900
C13                                                                                                  38534147.086 6 200657412.505 6        40.800    38534163.266 7 155160993.071 7        42.600    38534150.272 6 163050558.519 6        40.400
C04                                                                                                  38481025.013 6 200380799.499 6        36.400    38481032.357 6 154947174.034 6        41.700    38481024.290 6 162825806.756 6        40.600
C02                                                                                                  36868537.758 6 191984154.604 6        37.300    36868542.572 7 148454344.626 7        46.000    36868535.413 7 156002841.190 7        42.000
C01                                                                                                  37319316.757 6 194331474.955 6        38.900    37319323.252 7 150269451.599 7        43.700    37319315.683 6 157910237.161 6        41.300
C06                                                                                                  36807047.233 7 191663952.627 7        43.200    36807045.196 7 148206679.220 7        44.300    36807036.857 7 155742635.354 7        43.000
R12  20669119.287 7 110410733.158 7        47.000    20669117.005 7 110410695.178 7        47.300    20669135.353 7  85875028.488 7        45.500    20669134.996 7  85874996.494 7        44.200
R11  21350353.969 7 114089818.127 7        47.600    21350353.053 7 114089766.137 7        46.800    21350361.639 7  88736499.352 7        44.400    21350362.578 7  88736513.356 7        43.900
R21  23537150.255 6 125952040.728 6        36.300    23537149.096 5 125952029.719 5        35.700    23537182.221 6  97962887.676 6        39.200    23537180.630 6  97962828.669 6        36.900    23537173.469 5  94372794.419 5        34.700
I02  39938864.666 6 156728678.802 6        37.900
C43  24450191.539 7 128486579.615 7        42.600    24450215.516 7  95947747.349 7        45.000    24450197.446 7 127318584.206 7        43.000                                                    24450199.978 7 103456755.278 7        42.600    24450212.081 7  98450870.358 7        42.200
C37
C34  25150912.639 6 132168976.779 6        38.800    25150935.090 7  98697671.417 7        43.400    25150917.633 6 130967435.757 6        41.000                                                    25150921.067 6 106421745.505 6        41.200    25150930.300 6 101272371.539 6        39.200
J04  35822799.103 7 188250091.855 7        44.100    35822801.056 7 188250055.854 7        46.800    35822798.129 7 188250092.243 7        45.600    35822823.708 7 146688416.705 7        47.400    35822823.065 8 140576395.937 8        48.700
J07  36396841.531 6 191266693.808 6        40.200    36396843.884 7 191266690.816 7        42.300    36396837.823 7 191266703.551 7        47.000    36396864.460 8 149039026.099 8        49.300    36396863.625 8 142829062.857 8        50.500
R13  23295424.901 6 124396317.399 6        37.600    23295420.576 6 124396301.436 6        36.100
G26  20232511.145 7 106322571.570 7        47.800                                                                                                    20232532.101 7  82848781.965 7        47.700    20232527.025 8  79396756.384 8        50.300
J02  38461317.000 7 202115589.191 7        44.300    38461319.385 8 202115366.190 8        48.100    38461315.442 7 202115596.442 7        46.300    38461337.432 7 157492707.596 7        47.800    38461335.879 8 150930506.277 8        49.800
R08  20980549.441 7 112349892.107 7        47.400    20980547.484 7 112349849.124 7        45.500    20980566.757 7  87383267.913 7        46.100    20980566.185 7  87383231.918 7        45.700
I10  36185343.230 8 141999064.462 8        48.000
G28  22231223.304 7 116825872.063 7        42.300    22231224.751 7 116825833.072 7        46.000                                                    22231242.339 7  91033158.179 7        46.500    22231243.178 8  87240095.647 8        49.200
I09  38395322.433 7 150671491.207 7        47.000
G32  22198028.779 7 116651438.091 7        45.300                                                                                                    22198057.011 7  90897231.834 7        45.200    22198053.097 7  87109817.711 7        46.400
C03                                                                                                  36039242.326 6 187665804.902 6        40.800    36039243.643 7 145115100.226 7        45.400    36039236.712 7 152493805.141 7        44.400
C59                                                                                                  36941952.799 7 192366442.125 7        42.100                                                    36941936.494 7 156313427.040 7        44.900    36941946.000 7 148749907.205 7        44.900
C32  23356543.694 7 122739418.978 7        45.700    23356558.539 8  91656267.277 8        48.600    23356548.105 7 121623670.546 7        45.200                                                    23356545.387 7  98829169.188 7        46.000    23356555.663 7  94047165.696 7        47.000
G29  24442153.070 5 128444382.50415        31.900                                                                                                    24442173.515 5 100086543.655 5        31.600
I03  35829757.568 7 140603661.42317        47.800
C11                                                                                                  24917638.627 6 129752671.104 6        38.800    24917656.743 7 100333083.171 7        44.600    24917642.446 7 105434701.234 7        42.900
C60                                                                                                  37419542.637 6 194853374.810 6        41.700                                                    37419526.648 7 158334265.525 7        45.000    37419538.437 7 150672977.941 7        45.200
R02  22042885.366 7 117625068.188 7        44.400    22042883.330 7 117625074.203 7        43.100    22042898.470 7  91486187.210 7        43.000    22042898.956 7  91486145.224 7        42.600
G16  20373690.220 7 107064468.549 7        46.600                                                    20373710.306 6  83426939.645 6        36.600
R01  19176971.508 7 102511916.746 7        45.900    19176969.701 7 102511869.751 7        45.000    19176984.377 7  79731498.443 7        43.200    19176985.328 7  79731467.449 7        42.700
G27  23086790.665 6 121321918.252 6        39.400                                                                                                    23086820.688 6  94536571.321 6        39.400    23086819.613 7  90597548.324 7        45.400
G31  21231296.912 7 111571222.257 7        45.200                                                                                                    21231312.799 7  86938633.126 7        45.400
E07  25781579.819 7 135483113.144 7        44.500    25781604.154 7 101172435.945 7        45.600    25781600.851 7 103811655.452 7        46.400    25781605.181 8 102492084.998 8        48.600    25781586.550 7 109969984.442 7        46.500
E27  24950417.087 7 131115325.475 7        47.900    24950428.178 8  97910803.019 8        48.500    24950424.877 8 100465005.287 8        48.200    24950428.559 8  99187847.955 8        50.100    24950416.624 8 106424703.219 8        50.000
E21  23554340.596 8 123778897.449 8        49.500    23554355.615 8  92432498.110 8        50.300    23554351.366 8  94843775.263 8        50.300    23554355.758 8  93637908.483 8        52.100    23554342.773 8 100469825.797 8        53.000
E29  23181452.174 8 121819354.373 8        50.200    23181463.768 8  90968994.656 8        49.400    23181460.845 8  93342306.573 8        50.600    23181463.911 8  92155488.411 8        52.800    23181451.870 8  98879254.610 8        51.300
E19  24568826.156 7 129110063.423 7        42.700    24568838.699 7  96413330.338 7        42.400    24568835.506 7  98928478.918 7        44.500    24568838.461 7  97670873.420 7        46.600    24568825.623 7 104797051.417 7        43.200
> 2024 10 17  8 43  0.0000000  0 46       -.000377125000
C33
C41  22323087.142 8 117308570.563 8        48.400    22323110.814 8  87600674.373 8        50.700    22323091.783 8 116242188.494 8        49.100                                                    22323094.120 7  94456273.383 7        46.300    22323107.753 7  89885900.899 7        47.600
C40  37052763.045 7 194713763.008 7        46.000    37052776.004 7 145403187.867 7        47.400    37052768.078 7 192943483.391 7        46.400                                                    37052763.421 7 156782362.481 7        44.900    37052772.175 7 149196167.347 7        42.300
C39  36727855.516 7 193006205.303 7        46.600    36727859.331 8 144128061.726 8        48.000    36727859.766 7 191251599.529 7        46.400                                                    36727848.919 7 155407562.597 7        45.200    36727857.252 7 147887862.259 7        45.200
C25  23652372.953 7 124294010.747 7        44.100    23652379.223 7  92816821.108 7        46.500    23652376.749 7 123164127.681 7        44.700                                                    23652368.990 7 100080920.559 7        44.300    23652376.666 7  95238316.022 7        43.100
C23  22697270.954 8 119274922.069 8        48.600    22697273.801 8  89068977.201 8        49.300    22697275.055 7 118190672.124 7        47.800                                                    22697261.589 7  96039575.383 7        45.400    22697271.726 7  91392508.136 7        47.100
C16                                                                                                  36945071.285 7 192382684.275 7        45.200    36945073.956 7 148762449.465 7        44.800    36945063.058 6 156326665.249 6        41.600
C13                                                                                                  38544380.769 6 200710702.183 6        40.900    38544397.023 7 155202199.980 7        42.500    38544384.339 6 163093860.718 6        41.500
C04                                                                                                  38480516.599 6 200378143.914 6        36.800    38480522.454 6 154945120.645 6        41.400    38480514.150 6 162823648.946 6        40.400
C02                                                                                                  36868108.529 6 191981916.891 6        36.700    36868112.840 7 148452614.369 7        45.800    36868105.637 6 156001022.934 6        41.700
C01                                                                                                  37318793.991 6 194328755.177 6        38.900    37318800.846 7 150267348.559 7        42.800    37318793.187 6 157908027.168 6        41.400
C06                                                                                                  36804625.548 7 191651340.729 7        43.200    36804623.033 7 148196926.929 7        44.800    36804615.013 7 155732387.179 7        42.700
R12  20667820.048 7 110403798.448 7        47.500    20667818.998 7 110403760.454 7        46.800    20667836.804 7  85869635.095 7        45.700    20667836.892 7  85869603.101 7        44.700
R11  21362533.647 7 114154900.294 7        47.200    21362531.918 7 114154848.305 7        45.600    21362542.766 7  88787118.832 7        45.900    21362541.624 7  88787132.822 7        44.900
R21  23525100.763 6 125887560.794 6        38.400    23525098.693 6 125887549.800 6        37.500    23525130.504 6  97912736.720 6        37.600    23525131.237 6  97912677.664 6        37.100    23525123.642 5  94324481.258 5        35.700
I02  39935703.969 6 156716270.455 6        37.700
C43  24438697.219 6 128426173.643 6        41.600    24438721.040 7  95902639.146 7        45.200    24438701.838 7 127258727.383 7        42.300                                                    24438704.597 7 103408116.808 7        42.600    24438716.979 7  98404585.386 7        42.000
C37
C34  25148354.591 6 132155532.710 6        41.100    25148375.699 7  98687632.569 7        43.800    25148359.130 6 130954113.976 6        41.400                                                    25148362.065 6 106410920.839 6        40.800    25148371.284 6 101262070.747 6        39.400
J04  35820145.736 7 188236149.964 7        44.400    35820148.281 7 188236113.946 7        46.600    35820145.420 7 188236150.356 7        45.100    35820170.520 7 146677552.889 7        47.500    35820169.825 8 140565984.788 8        48.800
J07  36396179.210 6 191263211.070 6        38.600    36396181.024 7 191263208.039 7        42.300    36396175.206 7 191263220.818 7        46.600    36396201.535 8 149036312.300 8        49.000    36396200.821 8 142826462.148 8        50.700
R13  23284002.927 6 124335334.956 6        37.000    23284000.485 5 124335318.954 5        35.700
G26  20238518.355 7 106354138.602 7        47.600                                                                                                    20238539.829 8  82873379.728 8        48.800    20238533.672 8  79420329.260 8        50.400
J02  38465350.995 7 202136784.281 7        45.900    38465352.892 8 202136561.267 8        48.300    38465349.295 7 202136791.525 7        45.700    38465370.766 8 157509223.298 8        48.400    38465369.159 8 150946333.829 8        49.500
R08  21000102.481 7 112454604.526 7        46.000    21000101.251 7 112454561.543 7        44.900    21000121.268 7  87464710.786 7        45.100    21000120.114 7  87464674.775 7        44.900
I10  36184362.710 8 141995213.993 8        48.200
G28  22235594.095 7 116848835.428 7        44.100    22235595.438 7 116848796.421 7        45.800                                                    22235611.407 7  91051051.629 7        45.400    22235613.036 8  87257243.510 8        48.800
I09  38394942.082 7 150669998.598 7        46.700
G32  22211921.977 7 116724446.231 7        44.800                                                                                                    22211949.158 7  90954121.181 7        44.300    22211946.457 7  87164336.646 7        45.800
C03                                                                                                  36038701.696 6 187662991.938 6        40.800    36038703.433 7 145112925.121 7        44.400    36038696.528 7 152491519.412 7        44.500
C59                                                                                                  36941531.721 7 192364249.051 7        42.000                                                    36941515.353 7 156311645.021 7        45.200    36941524.917 7 148748211.425 7        45.100
C32  23347389.847 7 122691313.628 7        45.700    23347405.062 8  91620344.400 8        49.000    23347394.083 7 121576002.541 7        45.200                                                    23347391.266 7  98790435.006 7        45.600    23347401.360 7  94010305.738 7        46.600
G29  24452941.453 5                        31.900                                                                                                    24452960.197 5 100130717.153 5        31.200
I03  35819464.333 8 140563269.843 8        48.300
C11                                                                                                  24909139.650 6 129708422.228 6        37.000    24909158.437 7 100298867.412 7        44.300    24909144.784 7 105398745.640 7        43.100
C60                                                                                                  37419108.770 6 194851117.505 6        41.600                                                    37419093.163 7 158332431.341 7        45.000    37419104.811 7 150671232.538 7        45.000
R02  22021316.116 7 117509965.449 7        45.300    22021313.796 7 117509971.453 7        42.800    22021327.006 7  91396662.940 7        42.000    22021328.291 7  91396620.937 7        42.100
G16  20366466.693 7 107026508.945 7        47.300                                                    20366487.028 6  83397360.921 6        36.900
R01  19174132.596 7 102496736.879 7        45.700    19174129.696 7 102496689.884 7        44.700    19174145.097 7  79719691.812 7        43.700    19174145.781 7  79719660.839 7        42.500
G27  23065550.612 6 121210305.989 6        40.000                                                                                                    23065581.596 6  94449600.981 6        40.800    23065580.534 7  90514201.830 7        46.100
G31  21231080.517 7 111570089.896 7        45.200                                                                                                    21231097.468 7  86937750.838 7        45.700
E07  25792659.761 7 135541333.335 7        45.200    25792683.073 7 101215911.970 7        44.700    25792679.854 7 103856265.661 7        46.200    25792684.390 7 102536128.109 7        47.900    25792665.824 7 110017241.007 7        47.000
E27  24961510.206 7 131173618.117 7        47.800    24961521.018 8  97954333.276 8        48.200    24961517.826 8 100509671.117 8        48.500    24961521.266 8  99231945.996 8        50.200    24961509.272 8 106472018.694 8        50.200
E21  23553217.519 8 123772993.258 8        50.600    23553232.054 8  92428089.293 8        50.300    23553228.214 8  94839251.410 8        51.200    23553232.084 8  93633442.146 8        52.500    23553219.048 8 100465033.537 8        52.800
E29  23179882.676 8 121811106.729 8        49.900    23179894.280 8  90962835.679 8        49.500    23179891.543 8  93335986.922 8        50.600    23179894.507 8  92149249.093 8        52.200    23179882.273 8  98872560.071 8        51.300
E19  24556197.710 7 129043701.476 7        42.200    24556210.414 7  96363774.448 7        43.400    24556207.121 7  98877630.244 7        44.200    24556210.175 7  97620671.146 7        46.200    24556196.908 7 104743186.253 7        43.400
> 2024 10 17  8 43 30.0000000  0 46       -.000379379000
C33
C41  22331813.627 8 117354426.626 8        48.300    22331836.376 8  87634917.469 8        49.500    22331817.478 8 116287627.673 8        49.000                                                    22331820.299 7  94493196.401 7        45.700    22331834.271 7  89921037.306 7        47.600
C40  37044432.801 7 194669988.923 7        46.200    37044445.720 7 145370499.579 7        46.300    37044438.049 7 192900107.234 7        46.400                                                    37044433.559 7 156747115.910 7        44.700    37044442.259 7 149162626.287 7        42.300
C39  36724729.805 7 192989781.099 7        46.400    36724733.684 7 144115796.933 7        47.800    36724733.843 7 191235324.633 7        46.500                                                    36724723.469 7 155394337.924 7        44.700    36724731.834 7 147875277.496 7        45.000
C25  23661062.441 7 124339673.700 7        44.500    23661068.589 7  92850920.017 7        46.400    23661065.437 7 123209375.499 7        43.600                                                    23661058.733 7 100117688.081 7        44.100    23661065.937 7  95273304.461 7        43.000
C23  22697666.734 8 119277003.140 8        48.500    22697669.807 8  89070531.368 8        49.000    22697670.292 7 118192734.253 7        47.600                                                    22697657.102 7  96041251.144 7        45.400    22697667.406 7  91394102.824 7        46.800
C16                                                                                                  36942237.798 7 192367928.588 7        45.000    36942240.525 7 148751039.465 7        45.500    36942229.199 6 156314675.059 6        41.500
C13                                                                                                  38554621.264 6 200764024.321 6        40.200    38554636.939 7 155243432.005 7        42.800    38554624.063 6 163137189.300 6        41.400
C04                                                                                                  38480011.094 6 200375514.794 6        36.200    38480017.618 6 154943087.722 6        41.800    38480009.217 6 162821512.642 6        40.700
C02                                                                                                  36867684.004 6 191979708.926 6        36.800    36867688.509 7 148450907.115 7        46.100    36867681.534 6 155999228.844 6        41.400
C01                                                                                                  37318276.914 6 194326062.864 6        38.800    37318283.679 7 150265266.771 7        43.900    37318276.181 6 157905839.516 6        41.100
C06                                                                                                  36802193.330 7 191638676.142 7        43.400    36802190.882 7 148187133.916 7        45.000    36802182.858 7 155722096.195 7        43.000
R12  20666582.675 8 110397190.418 8        48.300    20666581.647 7 110397152.416 7        47.500    20666599.208 7  85864495.760 7        46.500    20666599.453 7  85864463.766 7        45.100
R11  21374718.584 8 114220001.507 8        48.000    21374715.118 7 114219949.503 7        45.900    21374724.203 7  88837753.075 7        45.400    21374724.461 7  88837767.071 7        44.500
R21  23513110.428 6 125823411.719 6        40.100    23513110.679 6 125823400.770 6        39.500    23513143.329 6  97862843.040 6        39.200    23513143.552 6  97862784.040 6        38.300    23513136.149 6  94276416.023 6        37.800
I02  39932549.716 6 156703895.923 6        37.000
C43  24427233.890 7 128365932.623 7        42.900    24427256.905 7  95857654.146 7        45.300    24427237.612 7 127199034.016 7        42.400                                                    24427241.537 7 103359611.163 7        42.400    24427253.386 6  98358426.814 6        41.800
C37
C34  25145872.748 7 132142480.894 7        42.000    25145890.900 7  98677886.588 7        43.900    25145874.388 6 130941180.845 6        41.000                                                    25145877.774 6 106400411.966 6        41.500    25145887.880 6 101252070.477 6        39.700
J04  35817514.460 7 188222322.637 7        44.300    35817516.820 7 188222286.633 7        46.400    35817513.588 7 188222323.024 7        45.500    35817539.096 7 146666778.350 7        47.500    35817538.625 8 140555659.180 8        49.300
J07  36395522.126 6 191259757.286 6        37.600    36395523.663 7 191259754.278 7        42.400    36395518.050 7 191259767.029 7        46.400    36395544.801 8 149033621.104 8        48.900    36395543.518 8 142823883.088 8        50.300
R13  23272640.800 6 124274668.465 6        38.000    23272640.528 6 124274652.455 6        36.300
G26  20244597.094 7 106386083.208 7        47.800                                                                                                    20244618.304 8  82898271.700 8        48.300    20244612.665 8  79444184.073 8        50.500
J02  38469388.716 7 202158004.704 7        45.700    38469390.951 8 202157781.696 8        48.700    38469387.407 7 202158011.947 7        45.800    38469408.914 8 157525758.745 8        48.900    38469407.143 8 150962180.298 8        49.800
R08  21019744.664 7 112559789.742 7        46.000    21019743.778 7 112559746.759 7        44.000    21019763.419 7  87546521.344 7        45.500    21019762.792 7  87546485.348 7        44.700
I10  36183387.255 7 141991387.292 7        47.200
G28  22239981.985 7 116871897.599 7        43.700    22239983.533 7 116871858.606 7        45.700                                                    22240000.247 7  91069022.043 7        45.900    22240001.690 8  87274465.163 8        48.800
I09  38394577.640 7 150668570.196 7        43.900
G32  22225888.952 7 116797861.488 7        42.500                                                                                                    22225920.896 7  91011327.740 7        44.900    22225917.519 7  87219159.582 7        46.500
C03                                                                                                  36038167.121 6 187660206.436 6        40.500    36038168.313 7 145110771.263 7        45.400    36038161.530 7 152489256.024 7        44.200
C59                                                                                                  36941115.765 7 192362084.119 7        42.000                                                    36941099.571 7 156309885.874 7        45.200    36941109.019 7 148746537.407 7        44.600
C32  23338325.853 7 122643678.817 7        46.500    23338340.074 8  91584772.912 8        48.300    23338329.002 7 121528800.727 7        44.300                                                    23338326.871 7  98752079.661 7        46.200    23338337.069 7  93973806.304 7        46.700
G29  24463813.201 4 128558211.56814        29.800                                                                                                    24463831.738 4                        24.600
I03  35809177.406 7 140522902.683 7        47.800
C11                                                                                                  24900694.921 6 129664435.616 6        37.400    24900711.897 7 100264854.463 7        44.800    24900697.101 7 105363003.142 7        43.400
C60                                                                                                  37418680.709 6 194848888.314 6        41.600                                                    37418664.882 7 158330620.005 7        44.900    37418676.614 7 150669508.869 7        44.700
R02  21999815.893 7 117395238.639 7        44.200    21999813.202 7 117395244.667 7        43.000    21999827.300 7  91307431.049 7        42.600    21999828.362 7  91307389.028 7        42.700
G16  20359345.095 7 106989084.861 7        46.100                                                    20359365.087 6  83368199.490 6        37.600
R01  19171448.970 7 102482389.521 7        45.400    19171446.281 7 102482342.530 7        44.900    19171460.993 7  79708532.718 7        43.200    19171461.625 7  79708501.724 7        42.900
G27  23044330.157 6 121098785.134 6        39.800                                                                                                    23044359.160 6  94362701.852 6        40.400    23044358.451 7  90430923.534 7        46.000
G31  21230884.996 7 111569058.444 7        45.200                                                                                                    21230901.415 7  86936947.169 7        45.000
E07  25803790.019 7 135599819.869 7        45.300    25803813.689 7 101259586.884 7        45.700    25803809.348 7 103901079.930 7        46.300    25803814.025 8 102580372.706 8        48.400    25803795.321 7 110064713.797 7        46.600
E27  24972627.370 8 131232042.082 8        48.000    24972638.834 7  97997961.608 7        47.900    24972635.435 8 100554437.563 8        48.700    24972638.875 8  99276143.376 8        50.300    24972626.683 8 106519440.765 8        49.900
E21  23552156.067 8 123767416.027 8        50.500    23552170.258 8  92423924.630 8        49.900    23552167.177 8  94834978.081 8        51.100    23552170.622 8  93629223.155 8        52.500    23552157.442 8 100460506.675 8        52.700
E29  23178379.925 8 121803208.650 8        49.900    23178390.755 8  90956937.731 8        49.300    23178388.574 8  93329935.121 8        50.900    23178391.562 8  92143274.224 8        52.600    23178379.228 8  98866149.272 8        51.400
E19  24543601.780 7 128977509.214 7        43.300    24543613.917 7  96314345.235 7        42.400    24543611.129 7  98826911.561 7        43.800    24543613.980 7  97570597.191 7        45.300    24543601.371 7 104689458.840 7        43.900
> 2024 10 17  8 44  0.0000000  0 46       -.000381618000
C33
C41  22340625.764 8 117400731.186 8        48.900    22340647.483 8  87669495.492 8        49.700    22340628.862 8 116333511.271 8        48.900                                                    22340631.541 7  94530480.545 7        45.700    22340645.697 7  89956517.361 7        47.600
C40  37036128.672 7 194626348.710 7        46.500    37036141.161 7 145337911.256 7        46.900    37036133.002 7 192856863.763 7        45.800                                                    37036129.162 7 156711977.160 7        44.900    37036137.681 7 149129187.825 7        42.200
C39  36721597.476 7 192973320.064 7        46.300    36721601.371 8 144103504.637 8        48.100    36721602.085 7 191219013.251 7        47.000                                                    36721590.828 7 155381083.623 7        44.600    36721599.287 7 147862664.530 7        45.000
C25  23669748.443 7 124385321.986 7        44.700    23669755.401 7  92885007.983 7        46.300    23669751.281 7 123254608.792 7        43.400                                                    23669745.385 7 100154443.820 7        44.200    23669752.501 7  95308281.685 7        43.000
C23  22698085.064 8 119279203.571 8        48.200    22698088.338 8  89072174.662 8        49.200    22698089.824 8 118194914.675 8        48.200                                                    22698075.780 7  96043023.004 7        45.500    22698085.420 7  91395788.980 7        46.200
C16                                                                                                  36939392.719 7 192353117.219 7        44.800    36939396.087 7 148739586.406 7        45.400    36939385.127 6 156302639.635 6        40.900
C13                                                                                                  38564866.122 6 200817375.443 6        40.300    38564882.751 7 155284686.448 7        42.500    38564869.909 6 163180541.440 6        40.900
C04                                                                                                  38479510.878 6 200372909.388 6        36.200    38479517.138 6 154941073.127 6        41.600    38479508.935 6 162819395.587 6        40.500
C02                                                                                                  36867264.878 6 191977527.929 6        37.400    36867269.545 7 148449220.718 7        45.800    36867262.552 6 155997456.689 6        41.300
C01                                                                                                  37317764.914 6 194323395.361 6        38.400    37317771.662 7 150263204.145 7        43.300    37317763.813 6 157903671.979 6        40.800
C06                                                                                                  36799750.889 7 191625956.245 7        43.500    36799748.279 7 148177298.124 7        44.800    36799740.004 7 155711760.277 7        42.800
R12  20665406.858 8 110390903.991 8        48.100    20665405.214 7 110390865.996 7        47.200    20665421.897 7  85859606.600 7        46.500    20665422.336 7  85859574.599 7        46.200
R11  21386902.562 7 114285116.376 7        46.700    21386900.213 7 114285064.372 7        46.200    21386910.428 7  88888397.965 7        46.100    21386910.134 7  88888411.975 7        45.500
R21  23501188.449 7 125759594.525 7        42.700    23501185.841 6 125759583.539 6        41.300    23501217.470 6  97813207.553 6        39.900    23501217.553 6  97813148.557 6        38.600    23501208.980 6  94228599.487 6        39.600
I02  39929402.970 6 156691553.303 6        37.500
C43  24415802.038 7 128305856.314 7        42.200    24415824.695 7  95812792.128 7        44.300    24415805.612 7 127139503.857 7        42.400                                                    24415808.765 7 103311238.172 7        42.100    24415821.042 6  98312394.476 6        41.700
C37
C34  25143461.814 6 132129819.930 6        41.800    25143481.346 7  98668432.453 7        44.100    25143466.596 7 130928634.991 7        42.600                                                    25143468.257 6 106390217.799 6        41.600    25143478.112 6 101242369.667 6        39.600
J04  35814905.293 7 188208607.184 7        44.600    35814906.722 7 188208571.178 7        46.200    35814904.250 7 188208607.576 7        45.000    35814929.103 7 146656090.993 7        46.500    35814928.357 8 140545417.122 8        48.600
J07  36394869.581 6 191256329.782 6        39.400    36394871.466 7 191256326.799 7        42.600    36394865.919 7 191256339.525 7        47.300    36394892.161 8 149030950.379 8        48.900    36394891.241 8 142821323.655 8        50.500
R13  23261341.081 6 124214314.412 6        36.600    23261338.212 5 124214298.424 5        35.700
G26  20250747.082 8 106418400.504 8        48.800                                                                                                    20250767.823 7  82923454.073 7        47.900    20250762.366 8  79468317.218 8        50.700
J02  38473431.532 7 202179247.381 7        45.500    38473433.231 8 202179024.389 8        48.300    38473429.732 7 202179254.632 7        46.300    38473451.264 8 157542311.521 8        48.600    38473449.492 8 150978043.404 8        49.600
R08  21039474.145 7 112665441.096 7        46.100    21039473.518 7 112665398.119 7        44.700    21039493.645 7  87628694.469 7        45.800    21039492.331 7  87628658.474 7        44.700
I10  36182417.253 8 141987582.328 8        48.400
G28  22244388.045 7 116895056.610 7        42.700    22244389.710 7 116895017.611 7        45.200                                                    22244408.686 7  91087067.946 7        46.800    22244408.751 8  87291759.142 8        48.700
I09  38394229.365 7 150667204.044 7        46.200
G32  22239938.960 7 116871679.711 7        44.100                                                                                                    22239967.960 7  91068848.311 7        45.000    22239965.646 7  87274283.434 7        47.200
C03                                                                                                  36037636.364 6 187657445.691 6        40.700    36037638.393 7 145108636.549 7        44.500    36037631.318 7 152487012.757 7        44.100
C59                                                                                                  36940704.518 6 192359944.598 6        41.900                                                    36940688.605 7 156308147.373 7        45.000    36940698.166 7 148744883.037 7        44.900
C32  23329349.868 7 122596513.188 7        45.400    23329364.865 8  91549551.805 8        49.100    23329353.629 7 121482063.889 7        44.400                                                    23329351.558 7  98714102.109 7        45.900    23329361.613 7  93937666.366 7        46.000
G29
I03  35798896.480 7 140482557.878 7        47.300
C11                                                                                                  24892298.429 6 129620710.845 6        38.900    24892314.801 7 100231043.969 7        45.100    24892299.911 7 105327473.404 7        42.600
C60                                                                                                  37418257.492 6 194846684.513 6        41.700                                                    37418241.574 7 158328829.313 7        44.500    37418253.292 7 150667804.831 7        44.900
R02  21978385.157 7 117280889.258 7        43.200    21978384.080 7 117280895.265 7        42.200    21978400.259 7  91218492.672 7        42.300    21978399.527 7  91218450.661 7        42.400
G16  20352324.127 7 106952193.448 7        46.100                                                    20352344.513 6  83339453.109 6        36.400
R01  19168920.446 7 102468873.112 7        47.000    19168917.913 7 102468826.117 7        45.100    19168932.237 7  79698019.899 7        43.200    19168932.765 6  79697988.898 6        41.800
G27  23023124.795 6 120987355.912 6        40.100                                                                                                    23023154.183 6  94275874.151 6        41.000    23023153.836 7  90347713.727 7        47.100
G31  21230707.017 7 111568125.498 7        45.400                                                                                                    21230723.245 7  86936220.249 7        45.200
E07  25814969.064 7 135658569.390 7        44.700    25814993.346 7 101303458.199 7        45.500    25814989.251 7 103946095.728 7        46.700    25814993.770 8 102624816.262 8        48.500    25814975.155 7 110112400.029 7        46.300
E27  24983769.426 8 131290593.115 8        48.600    24983780.607 8  98041684.810 8        48.200    24983777.372 8 100599301.366 8        48.900    24983780.774 8  99320436.884 8        50.600    24983768.401 8 106566965.981 8        49.800
E21  23551156.106 8 123762162.101 8        50.600    23551170.363 8  92420001.378 8        50.300    23551167.079 8  94830952.482 8        51.000    23551170.733 8  93625248.724 8        52.300    23551157.389 8 100456242.230 8        52.500
E29  23176942.888 8 121795658.366 8        50.700    23176953.805 8  90951299.505 8        49.500    23176951.711 8  93324149.815 8        50.600    23176954.823 8  92137562.456 8        52.200    23176942.736 8  98860020.786 8        51.400
E19  24531037.571 7 128911485.530 7        42.800    24531049.825 7  96265041.900 7        42.100    24531047.240 7  98776322.048 7        44.000    24531049.990 7  97520650.770 7        45.600    24531037.386 7 104635868.247 7        43.800
> 2024 10 17  8 44 30.0000000  0 45       -.000383839000
C33
C41  22349522.660 8 117447484.031 8        49.000    22349544.349 8  87704408.277 8        49.200    22349525.727 8 116379839.090 8        48.600                                                    22349528.623 7  94568125.653 7        45.500    22349542.463 7  89992340.919 7        47.500
C40  37027850.201 7 194582844.312 7        46.600    37027862.627 7 145305424.357 7        47.200    37027855.280 7 192813754.857 7        45.900                                                    37027850.242 7 156676947.758 7        45.100    37027859.267 7 149095853.421 7        42.500
C39  36718458.394 7 192956823.956 7        46.400    36718462.275 8 144091186.146 8        48.000    36718462.504 7 191202667.111 7        46.600                                                    36718451.838 7 155367801.064 7        44.600    36718460.237 7 147850024.688 7        44.800
C25  23678433.621 7 124430956.582 7        44.900    23678439.414 7  92919085.732 7        46.400    23678436.707 7 123299828.555 7        44.600                                                    23678429.224 7 100191188.548 7        44.100    23678436.492 7  95343248.427 7        43.000
C23  22698526.006 7 119281523.732 7        47.800    22698529.627 8  89073907.389 8        49.500    22698531.362 7 118197213.758 7        47.400                                                    22698517.365 7  96044891.295 7        45.700    22698526.517 7  91397566.889 7        46.000
C16                                                                                                  36936538.504 7 192338251.807 7        44.600    36936541.132 7 148728091.569 7        45.200    36936530.334 6 156290560.304 6        41.400
C13                                                                                                  38575117.343 6 200870756.159 6        41.000    38575134.169 7 155325963.779 7        43.300    38575121.430 6 163223917.625 6        41.500
C04                                                                                                  38479014.529 5 200370329.158 5        35.800    38479021.396 7 154939078.015 7        42.400    38479013.186 6 162817299.001 6        40.400
C02                                                                                                  36866852.271 6 191975375.391 6        37.300    36866856.309 7 148447556.316 7        45.900    36866849.131 6 155995707.634 6        41.400
C01                                                                                                  37317257.616 6 194320754.055 6        38.600    37317264.253 7 150261161.775 7        43.800    37317256.536 6 157901525.758 6        41.200
C06                                                                                                  36797297.824 7 191613182.697 7        43.400    36797295.452 7 148167420.850 7        44.700    36797286.931 7 155701380.753 7        42.500
R12  20664288.842 8 110384938.424 8        48.800    20664288.454 8 110384900.422 8        48.400    20664304.844 7  85854966.982 7        44.800    20664304.877 7  85854934.988 7        44.500
R11  21399090.209 7 114350244.598 7        46.800    21399088.396 7 114350192.616 7        45.100    21399098.464 7  88939053.239 7        46.300    21399098.313 7  88939067.258 7        45.100
R21  23489326.092 7 125696114.692 7        43.300    23489324.463 7 125696103.717 7        42.000    23489353.519 6  97763834.513 6        40.000    23489354.958 6  97763775.502 6        39.400    23489346.309 6  94181035.765 6        40.400
I02  39926266.482 6 156679243.917 6        37.300
C43  24404401.851 7 128245948.586 7        42.500    24404424.542 7  95768055.999 7        44.700    24404404.476 6 127080140.726 6        41.400                                                    24404407.728 7 103263000.886 7        42.000    24404420.476 6  98266491.261 6        41.300
C37
C34  25141125.426 6 132117552.347 6        41.400    25141146.934 7  98659272.117 7        43.000    25141131.930 6 130916478.954 6        41.700                                                    25141133.252 6 106380340.370 6        41.700    25141142.609 6 101232970.285 6        39.200
J04  35812316.271 7 188195005.024 7        43.700    35812318.309 7 188194969.013 7        46.400    35812315.767 7 188195005.416 7        44.700    35812341.141 7 146645491.896 7        47.600    35812339.866 8 140535259.666 8        48.700
J07  36394222.821 6 191252929.970 6        38.100    36394224.742 7 191252927.007 7        42.600    36394219.012 7 191252939.718 7        46.400    36394245.220 8 149028301.229 8        49.500    36394244.302 8 142818784.898 8        50.100
R13  23250098.248 6 124154273.558 6        36.800    23250094.650 5 124154257.596 5        35.300
G26  20256967.694 8 106451089.794 8        49.300                                                                                                    20256988.189 8  82948926.325 8        48.300    20256982.696 8  79492728.142 8        50.500
J02  38477478.730 7 202200513.453 7        44.400    38477480.349 8 202200290.454 8        48.400    38477476.734 7 202200520.704 7        46.600    38477497.817 8 157558882.537 8        48.600    38477496.000 8 150993923.967 8        49.700
R08  21059291.728 7 112771556.448 7        47.100    21059290.480 7 112771513.457 7        45.000    21059310.009 7  87711228.470 7        45.800    21059308.695 7  87711192.474 7        44.600
I10  36181453.472 7 141983800.185 7        47.600
G28  22248814.822 7 116918314.717 7        42.000    22248816.511 7 116918275.722 7        45.400                                                    22248833.551 7  91105191.061 7        46.000    22248834.535 8  87309127.111 8        48.300
I09  38393898.003 7 150665901.253 7        44.900
G32  22254062.642 7 116945900.781 7        44.100                                                                                                    22254091.751 7  91126682.775 7        43.600    22254090.037 7  87329708.123 7        47.000
C03                                                                                                  36037111.447 6 187654711.091 6        40.700    36037113.126 7 145106522.052 7        45.000    36037106.133 7 152484790.723 7        44.100
C59                                                                                                  36940299.118 7 192357831.950 7        42.100                                                    36940283.003 7 156306430.708 7        44.900    36940292.362 7 148743249.445 7        44.700
C32  23320464.796 7 122549819.479 7        45.800    23320479.592 8  91514683.103 8        49.300    23320467.379 7 121435794.675 7        45.200                                                    23320465.962 7  98676504.575 7        45.600    23320475.487 7  93901888.072 7        45.100
I03  35788621.354 7 140442236.472 7        47.900
C11                                                                                                  24883951.980 6 129577251.667 6        38.100    24883967.939 7 100197438.860 7        43.900    24883954.633 7 105292159.486 7        43.000
C60                                                                                                  37417839.098 6 194844507.533 6        41.900                                                    37417823.500 7 158327060.401 7        45.000    37417835.145 7 150666121.535 7        45.000
R02  21957029.377 7 117166922.841 7        43.600    21957026.652 7 117166928.855 7        42.000    21957042.292 7  91129852.164 7        42.900    21957041.978 7  91129810.167 7        42.300
G16  20345405.933 7 106915835.997 7        46.000                                                    20345426.427 6  83311122.813 6        37.100
R01  19166547.089 7 102456189.667 7        45.800    19166544.697 7 102456142.674 7        45.000    19166559.843 7  79688154.939 7        42.800    19166560.113 7  79688123.939 7        42.700
G27  23001939.748 6 120876022.974 6        40.500                                                                                                    23001968.274 6  94189121.490 6        41.400    23001967.658 7  90264575.779 7        46.800
G31  21230547.373 7 111567292.680 7        45.100                                                                                                    21230565.084 7  86935571.358 7        45.500
E07  25826199.126 7 135717582.612 7        45.500    25826223.879 7 101347526.432 7        45.900    25826218.577 7 103991313.585 7        46.100    25826223.781 7 102669459.307 7        47.900    25826205.080 7 110160300.322 7        46.900
E27  24994935.156 7 131349270.984 7        47.500    24994946.553 8  98085502.718 8        48.300    24994943.388 8 100644262.348 8        48.300    24994946.766 8  99364826.326 8        50.500    24994934.422 8 106614594.131 8        49.500
E21  23550217.667 8 123757231.968 8        50.600    23550232.267 8  92416319.936 8        50.500    23550228.515 8  94827174.976 8        50.600    23550232.415 8  93621519.248 8        52.300    23550219.280 8 100452240.606 8        52.500
E29  23175573.062 8 121788458.199 8        50.200    23175583.832 8  90945922.729 8        49.300    23175581.248 8  93318632.785 8        50.100    23175584.710 8  92132115.553 8        51.900    23175572.750 8  98854176.480 8        51.500
E19  24518506.753 7 128845633.501 7        42.700    24518518.456 6  96215866.757 6        41.600    24518516.182 7  98725864.070 7        44.900    24518518.800 7  97470834.211 7        45.700    24518505.902 7 104582416.984 7        43.500
> 2024 10 17  8 45  0.0000000  0 44       -.000386047000
C33
C41  22358502.708 8 117494675.858 8        48.800    22358524.719 8  87739648.873 8        49.600    22358506.236 8 116426601.902 8        48.900                                                    22358509.012 7  94606124.225 7        45.700    22358522.754 7  90028500.832 7        47.500
C40  37019596.302 7 194539468.547 7        46.700    37019608.334 7 145273033.534 7        46.900    37019600.291 7 192770773.437 7        45.900                                                    37019596.136 7 156642021.935 7        45.400    37019605.451 7 149062617.590 7        42.900
C39  36715311.121 7 192940285.458 7        46.100    36715315.081 8 144078836.007 8        48.200    36715315.138 7 191186278.964 7        46.400                                                    36715304.499 7 155354484.372 7        44.800    36715312.940 7 147837352.363 7        44.900
C25  23687113.502 7 124476569.464 7        45.200    23687118.972 7  92953147.253 7        46.600    23687114.137 7 123345026.740 7        43.000                                                    23687109.111 7 100227915.759 7        43.900    23687116.634 7  95378198.501 7        43.100
C23  22698988.948 8 119283954.829 8        48.000    22698992.028 8  89075722.958 8        49.200    22698993.108 7 118199622.746 7        47.500                                                    22698979.821 7  96046848.892 7        45.700    22698989.510 7  91399429.786 7        46.300
C16                                                                                                  36933672.071 7 192323325.049 7        45.200    36933674.279 7 148716549.290 7        44.800    36933663.861 7 156278431.116 7        42.200
C13                                                                                                  38585373.268 6 200924158.034 6        41.100    38585389.517 6 155367257.472 6        41.800    38585376.443 6 163267310.997 6        41.800
C04                                                                                                  38478522.307 6 200367766.399 6        36.200    38478529.141 6 154937096.411 6        41.600    38478521.097 6 162815216.614 6        40.600
C02                                                                                                  36866442.441 6 191973243.618 6        37.100    36866446.748 7 148445907.972 7        45.700    36866439.679 6 155993975.471 6        41.500
C01                                                                                                  37316753.812 6 194318131.305 6        38.800    37316760.333 7 150259133.769 7        43.900    37316752.828 6 157899394.602 6        41.100
C06                                                                                                  36794832.672 7 191600348.040 7        43.300    36794830.959 7 148157496.321 7        44.900    36794822.062 7 155690951.581 7        43.000
R12  20663230.450 8 110379283.769 8        48.300    20663229.103 7 110379245.774 7        47.300    20663245.702 7  85850569.174 7        44.700    20663245.782 7  85850537.179 7        44.600
R11  21411277.651 7 114415376.769 7        46.300    21411276.930 7 114415324.779 7        46.000    21411286.912 7  88989711.590 7        45.800    21411287.086 7  88989725.595 7        45.600
R21  23477526.237 7 125632968.313 7        43.800    23477522.520 6 125632957.331 6        41.900    23477555.640 7  97714720.823 7        42.000    23477555.315 6  97714661.820 6        41.200    23477546.670 6  94133721.979 6        40.900
I02  39923137.100 6 156666961.984 6        38.300
C43  24393033.021 6 128186204.201 6        41.400    24393055.370 7  95723441.847 7        44.700    24393037.799 7 127020939.453 7        43.000                                                    24393038.775 6 103214895.124 6        41.800    24393051.499 6  98220713.225 6        40.900
C34  25138866.274 6 132105671.843 6        41.600    25138885.516 7  98650400.804 7        42.900    25138870.319 6 130904706.460 6        41.000                                                    25138871.628 6 106370774.600 6        41.900    25138880.543 6 101223867.481 6        38.700
J04  35809748.478 7 188181508.515 7        43.300    35809750.536 7 188181472.526 7        46.500    35809747.654 7 188181508.906 7        46.000    35809772.838 7 146634975.158 7        47.300    35809771.718 8 140525181.119 8        48.500
J07  36393579.125 6 191249550.239 6        38.900    36393581.337 7 191249547.249 7        42.200    36393575.691 7 191249559.987 7        47.100    36393602.094 8 149025667.705 8        49.400    36393600.954 8 142816261.121 8        50.400
R13  23238907.870 6 124094537.920 6        36.600    23238907.437 5 124094521.924 5        35.900
G26  20263256.407 8 106484141.271 8        48.200                                                                                                    20263277.419 7  82974680.791 7        47.800    20263272.522 8  79517409.514 8        50.800
J02  38481527.456 7 202221794.910 7        45.400    38481529.576 8 202221571.911 8        48.500    38481525.555 7 202221802.161 7        46.600    38481547.821 8 157575465.540 8        48.500    38481545.553 8 151009816.019 8        49.400
R08  21079193.164 7 112878123.931 7        47.700    21079191.779 7 112878080.954 7        45.500    21079210.067 7  87794114.176 7        44.700    21079209.702 7  87794078.164 7        44.900
I10  36180494.584 8 141980035.156 8        48.600
G28  22253257.307 7 116941665.101 7        42.600    22253259.443 7 116941626.114 7        45.100                                                    22253276.422 7  91123386.111 7        45.700    22253277.878 8  87326563.991 8        48.500
I09  38393580.306 7 150664656.136 7        46.500
G32  22268261.506 7 117020515.576 7        43.900                                                                                                    22268289.934 7  91184824.073 7        43.800    22268288.849 7  87385426.822 7        47.200
C03                                                                                                  36036589.347 6 187651995.065 6        40.900    36036591.552 7 145104421.923 7        45.000    36036584.382 7 152482583.784 7        43.900
C59                                                                                                  36939896.565 7 192355738.555 7        42.000                                                    36939880.913 7 156304729.696 7        44.900    36939890.353 7 148741630.753 7        44.700
C32  23311667.640 7 122503591.423 7        46.300    23311682.567 8  91480162.119 8        49.300    23311670.983 7 121389986.847 7        44.800                                                    23311669.548 7  98639281.953 7        45.500    23311678.994 7  93866466.542 7        45.600
I03  35778350.816 7 140401932.768 7        47.800
C11                                                                                                  24875654.636 6 129534052.542 6        38.500    24875670.727 7 100164034.868 7        43.100    24875658.207 7 105257056.907 7        43.600
C60                                                                                                  37417424.666 6 194842349.805 6        41.800                                                    37417409.083 7 158325307.132 7        44.800    37417420.669 7 150664453.118 7        44.900
R02  21935743.743 7 117053335.870 7        44.100    21935741.004 7 117053341.891 7        43.000    21935755.452 7  91041506.760 7        43.400    21935755.756 7  91041464.768 7        43.300
G16  20338586.781 7 106880004.520 7        45.600                                                    20338607.992 6  83283202.367 6        37.800
R01  19164329.511 7 102444332.431 7        45.900    19164326.900 7 102444285.443 7        45.100    19164341.612 7  79678932.565 7        43.200    19164342.118 7  79678901.569 7        42.600
G27  22980770.352 6 120764781.730 6        40.600                                                                                                    22980799.808 6  94102440.224 6        40.400    22980798.877 7  90181506.315 7        46.900
G31  21230407.616 7 111566552.508 7        46.500                                                                                                    21230424.760 7  86934994.642 7        45.600
E07  25837477.512 7 135776851.218 7        45.000    25837502.397 7 101391785.389 7        45.700    25837498.124 7 104036727.117 7        47.100    25837502.274 8 102714295.549 8        48.500    25837483.695 7 110208407.899 7        46.700
E27  25006123.390 7 131408066.414 7        47.600    25006134.823 8  98129408.443 8        48.000    25006131.713 8 100689313.444 8        48.900    25006135.153 8  99409304.738 8        50.300    25006122.717 8 106662317.720 8        49.200
E21  23549339.298 8 123752617.006 8        49.800    23549354.097 8  92412873.840 8        49.800    23549349.975 8  94823638.967 8        50.600    23549354.119 8  93618028.200 8        52.400    23549340.872 8 100448494.797 8        52.600
E29  23174268.203 8 121781601.408 8        50.100    23174279.147 8  90940802.376 8        49.200    23174276.539 8  93313378.856 8        50.900    23174279.947 8  92126928.410 8        52.200    23174267.729 8  98848610.878 8        51.300
E19  24506007.452 7 128779947.261 7        43.400    24506018.855 6  96166815.423 6        41.800    24506016.415 7  98675533.131 7        45.100    24506019.181 7  97421143.068 7        45.800    24506006.097 7 104529100.278 7        43.300
> 2024 10 17  8 45 30.0000000  0 44       -.000388239000
C33
C41  22367567.218 8 117542312.109 8        48.500    22367589.871 8  87775221.342 8        49.100    22367571.300 8 116473805.094 8        49.400                                                    22367573.740 7  94644480.646 7        46.200    22367587.540 7  90065001.282 7        47.200
C40  37011367.398 7 194496228.975 7        46.500    37011379.928 7 145240744.393 7        47.000    37011372.212 7 192727926.940 7        46.300                                                    37011367.758 7 156607205.771 7        44.900    37011377.214 7 149029486.109 7        43.000
C39  36712157.291 7 192923712.010 7        46.700    36712161.197 7 144066459.765 7        47.800    36712161.057 7 191169856.180 7        46.000                                                    36712150.510 7 155341139.539 7        44.400    36712159.070 7 147824653.256 7        44.800
C25  23695789.917 7 124522167.287 7        45.000    23695796.784 7  92987197.543 7        46.200    23695794.765 7 123390210.014 7        45.500                                                    23695786.006 7 100264630.869 7        44.400    23695794.135 7  95413137.064 7        43.000
C23  22699473.753 7 119286502.907 7        47.300    22699476.846 8  89077625.859 8        48.600    22699478.347 7 118202147.683 7        47.500                                                    22699464.472 7  96048900.700 7        45.700    22699474.216 7  91401382.346 7        46.300
C16                                                                                                  36930795.363 7 192308344.134 7        45.400    36930797.659 7 148704965.138 7        44.700    36930787.010 6 156266257.923 6        41.900
C13                                                                                                  38595633.814 6 200977587.514 6        41.500    38595649.540 7 155408572.503 7        42.200    38595636.780 6 163310726.803 6        40.900
C04                                                                                                  38478034.479 6 200365228.184 6        36.300    38478041.702 6 154935133.762 6        41.300    38478033.639 6 162813154.151 6        40.700
C02                                                                                                  36866037.114 6 191971139.688 6        37.300    36866042.750 7 148444281.146 7        46.200    36866035.672 6 155992265.921 6        41.600
C01                                                                                                  37316254.928 6 194315534.219 6        38.700    37316261.667 7 150257125.594 7        43.000    37316254.058 6 157897284.309 6        41.900
C06                                                                                                  36792357.859 7 191587459.368 7        43.600    36792355.427 7 148147530.015 7        45.200    36792347.012 7 155680478.505 7        42.800
R12  20662230.503 8 110373945.026 8        49.300    20662229.451 8 110373907.024 8        48.500    20662246.529 7  85846417.114 7        45.500    20662246.400 7  85846385.128 7        45.100
R11  21423468.197 7 114480517.598 7        47.100    21423467.607 7 114480465.601 7        46.200    21423476.253 7  89040376.672 7        44.900    21423476.013 7  89040390.676 7        44.800
R21  23465788.460 7 125570166.673 7        43.000    23465786.755 6 125570155.713 6        41.200    23465818.388 6  97665875.338 6        41.700    23465818.725 6  97665816.323 6        39.900    23465810.610 6  94086666.530 6        41.300
I02  39920016.617 6 156654713.381 6        37.900
C43  24381697.346 7 128126632.692 7        42.300    24381720.038 7  95678956.779 7        44.600    24381701.327 7 126961909.543 7        43.200                                                    24381702.391 7 103166928.595 7        42.000    24381715.057 6  98175067.675 6        41.100
C34  25136679.988 6 132094186.652 6        41.300    25136699.527 7  98641824.688 7        42.300    25136685.488 6 130893325.690 6        41.600                                                    25136686.809 7 106361527.142 7        42.200    25136694.138 6 101215067.573 6        38.400
J04  35807200.690 7 188168124.680 7        43.600    35807203.151 7 188168088.675 7        46.500    35807200.670 7 188168125.071 7        44.800    35807225.861 7 146624546.192 7        47.300    35807224.859 8 140515186.697 8        48.400
J07  36392940.838 6 191246197.618 6        39.000    36392943.438 7 191246194.611 7        42.400    36392937.715 7 191246207.359 7        46.600    36392963.888 8 149023055.318 8        49.400    36392962.906 8 142813757.590 8        50.200
R13  23227782.462 5 124035113.676 5        35.500    23227779.771 5 124035097.681 5        34.200
G26  20269616.398 8 106517559.800 8        49.000                                                                                                    20269636.467 7  83000721.276 7        47.400    20269631.952 8  79542365.008 8        50.200
J02  38485582.204 7 202243098.607 7        45.700    38485583.620 8 202242875.607 8        48.300    38485580.693 7 202243105.858 7        46.800    38485601.535 8 157592065.873 8        48.800    38485599.551 8 151025724.685 8        49.400
R08  21099178.843 7 112985147.045 7        46.900    21099177.553 7 112985104.076 7        45.400    21099196.867 7  87877354.229 7        46.300    21099196.104 7  87877318.218 7        45.500
I10  36179540.959 8 141976292.527 8        48.600
G28  22257721.133 7 116965115.645 7        42.500    22257722.435 7 116965076.629 7        44.700                                                    22257739.188 7  91141659.146 7        46.000    22257740.176 8  87344075.650 8        48.000
I09  38393278.687 7 150663474.081 7        45.700
G32  22282536.627 7 117095529.665 7        44.900                                                                                                    22282566.243 7  91243276.520 7        45.800    22282563.016 7  87441443.684 7        47.200
C03                                                                                                  36036073.023 6 187649304.640 6        40.600    36036074.700 7 145102341.591 7        45.300    36036067.636 7 152480397.629 7        43.900
C59                                                                                                  36939499.869 7 192353671.433 7        42.100                                                    36939483.727 7 156303050.032 7        44.700    36939493.335 7 148740032.374 7        44.600
C32  23302960.627 7 122457837.365 7        45.800    23302975.644 8  91445995.110 8        48.000    23302964.379 7 121344648.744 7        45.100                                                    23302963.272 7  98602440.997 7        45.400    23302972.211 7  93831408.217 7        44.700
I03  35768086.296 7 140361652.034 7        47.800
C11                                                                                                  24867411.234 6 129491122.872 6        38.500    24867426.858 7 100130839.187 7        43.700    24867413.603 7 105222173.271 7        42.600
C60                                                                                                  37417015.117 6 194840218.311 6        41.700                                                    37416999.749 7 158323575.172 7        44.600    37417011.315 7 150662804.975 7        44.900
R02  21914529.256 7 116940139.723 7        42.600    21914528.104 6 116940145.749 6        41.800    21914542.750 7  90953465.329 7        43.200    21914542.635 7  90953423.348 7        43.000
G16  20331870.346 7 106844706.295 7        46.300                                                    20331890.197 6  83255697.447 6        36.900
R01  19162267.784 7 102433309.526 7        47.000    19162265.234 7 102433262.523 7        44.900    19162279.032 7  79670359.119 7        43.000    19162280.313 7  79670328.132 7        42.400
G27  22959620.795 6 120653642.396 6        41.600                                                                                                    22959650.483 6  94015838.425 6        40.400    22959649.386 7  90098512.947 7        46.800
G31  21230285.892 7 111565912.393 7        45.800                                                                                                    21230302.345 7  86934495.902 7        45.200
E07  25848805.623 7 135836381.627 7        44.300    25848831.678 7 101436239.816 7        45.900    25848826.305 7 104082341.260 7        46.500    25848830.692 8 102759329.833 8        48.500    25848812.179 7 110256727.960 7        46.800
E27  25017335.261 7 131466984.944 7        47.500    25017346.541 7  98173406.061 7        47.700    25017343.540 8 100734458.825 8        49.000    25017346.982 8  99453876.246 8        50.100    25017334.772 8 106710141.222 8        49.400
E21  23548522.519 8 123748323.409 8        49.900    23548536.863 8  92409667.694 8        50.100    23548532.855 8  94820349.175 8        50.400    23548536.994 8  93614780.233 8        52.100    23548523.721 8 100445009.815 8        52.500
E29  23173030.514 8 121775095.993 8        50.300    23173041.247 8  90935944.406 8        49.000    23173038.600 8  93308394.158 8        50.700    23173042.010 8  92122007.085 8        52.400    23173029.926 8  98843330.489 8        51.400
E19  24493540.569 7 128714435.690 7        43.900    24493552.181 7  96117894.501 7        42.600    24493549.586 7  98625336.010 7        44.700    24493552.698 7  97371584.059 7        46.100    24493539.566 7 104475925.339 7        43.900
> 2024 10 17  8 46  0.0000000  0 46       -.000390421000
C33
C41  22376713.360 8 117590375.165 8        48.600    22376735.896 8  87811112.521 8        49.700    22376717.853 8 116521431.195 8        48.900                                                    22376719.676 7  94683180.726 7        46.000    22376733.738 7  90101828.759 7        47.200
C40  37003162.179 7 194453110.096 7        46.700    37003174.390 7 145208545.385 7        46.500    37003166.904 7 192685200.074 7        46.000                                                    37003162.123 7 156572486.795 7        45.000    37003171.541 7 148996447.121 7        43.000
C39  36708994.035 7 192907088.043 7        46.600    36708997.825 8 144054045.799 8        48.200    36708998.092 7 191153383.349 7        46.800                                                    36708987.012 7 155327754.041 7        44.800    36708995.730 7 147811915.449 7        45.100
C25  23704460.681 7 124567733.688 7        44.700    23704467.570 7  93021224.367 7        46.500    23704464.086 7 123435362.186 7        44.100                                                    23704457.303 7 100301320.675 7        44.300    23704465.302 7  95448051.536 7        43.200
C23  22699977.191 7 119289150.953 7        47.300    22699980.817 8  89079603.427 8        49.700    22699981.998 7 118204771.668 7        47.700                                                    22699968.440 7  96051032.987 7        45.500    22699978.330 7  91403411.482 7        46.700
C16                                                                                                  36927904.724 7 192293293.607 7        46.000    36927907.738 7 148693327.146 7        44.700    36927896.767 6 156254028.162 6        41.700
C13                                                                                                  38605895.771 6 201031027.796 6        40.700    38605912.514 6 155449895.894 6        41.800    38605899.520 6 163354151.385 6        41.600
C04                                                                                                  38477549.119 6 200362698.713 6        36.400    38477555.879 7 154933177.898 7        42.300    38477547.678 6 162811098.816 6        41.200
C02                                                                                                  36865636.570 6 191969047.721 6        36.900    36865640.911 7 148442663.577 7        45.800    36865633.848 6 155990566.070 6        41.400
C01                                                                                                  37315758.454 6 194312946.953 6        39.000    37315764.714 7 150255125.011 7        43.500    37315757.146 6 157895182.007 6        41.300
C06                                                                                                  36789869.387 7 191574501.120 7        43.000    36789866.622 7 148137509.918 7        44.100    36789858.557 7 155669948.904 7        43.200
R12  20661285.468 8 110368903.703 8        48.600    20661285.494 7 110368865.701 7        47.600    20661302.795 7  85842496.366 7        44.300    20661302.335 7  85842464.364 7        44.300
R11  21435655.015 7 114545649.151 7        46.000    21435655.324 7 114545597.154 7        46.300    21435664.496 7  89091034.525 7        45.900    21435664.973 7  89091048.523 7        44.800
R21  23454114.035 6 125507697.772 6        41.600    23454112.824 6 125507686.775 6        41.500    23454146.832 7  97617288.614 7        42.400    23454145.514 6  97617229.641 6        41.200    23454135.190 6  94039860.393 6        38.800
I02  39916900.264 6 156642485.739 6        38.600
C43  24370390.618 7 128067220.606 7        42.500    24370414.616 7  95634590.771 7        45.000    24370394.440 6 126903037.594 6        41.800                                                    24370397.322 7 103119090.437 7        42.200    24370409.081 6  98129544.296 6        41.300
C37
C34  25134564.780 6 132083082.082 6        40.700    25134585.343 7  98633532.775 7        42.300    25134571.248 7 130882322.104 7        42.600                                                    25134572.773 7 106352586.158 7        42.400    25134581.228 6 101206559.320 6        39.400
J04  35804672.777 7 188154837.579 7        44.500    35804675.036 7 188154801.579 7        46.800    35804672.172 7 188154837.968 7        44.600    35804697.405 7 146614192.618 7        47.400    35804696.614 8 140505264.523 8        48.700
J07  36392305.306 6 191242856.153 6        38.800    36392307.588 7 191242853.159 7        42.300    36392301.871 7 191242865.895 7        46.900    36392328.284 8 149020451.634 8        48.800    36392327.108 8 142811262.398 8        49.900
R13  23216709.775 5 123975984.351 5        35.100    23216706.011 5 123975968.380 5        33.900
G26  20276041.706 8 106551327.320 8        48.400                                                                                                    20276062.910 7  83027033.706 7        47.800    20276057.429 8  79567581.093 8        51.100
J02  38489637.300 7 202264408.116 7        45.300    38489638.801 8 202264185.109 8        48.300    38489635.219 7 202264415.367 7        46.600    38489657.165 8 157608670.729 8        49.000    38489654.400 8 151041637.672 8        49.500
R08  21119245.067 7 113092605.616 7        46.800    21119244.471 7 113092562.640 7        45.400    21119264.013 7  87960932.956 7        46.800    21119263.535 7  87960896.960 7        45.900
I10  36178589.356 7 141972560.382 7        47.200
G28  22262198.918 7 116988651.164 7        42.100    22262200.775 7 116988612.148 7        45.000                                                    22262217.825 7  91159998.448 7        46.200    22262218.956 8  87361650.793 8        48.400
I09  38392990.144 7 150662343.248 7        42.900
G32  22296884.013 7 117170925.604 7        45.300                                                                                                    22296913.107 7  91302026.479 7        45.000    22296909.827 7  87497745.704 7        46.400
C03                                                                                                  36035557.570 6 187646623.961 6        40.500    36035559.944 7 145100268.788 7        45.400    36035552.843 7 152478219.436 7        44.000
C59                                                                                                  36939104.901 6 192351614.771 6        41.800                                                    36939088.814 7 156301378.860 7        45.000    36939098.362 7 148738442.077 7        44.900
C32  23294342.037 7 122412542.674 7        46.700    23294356.984 8  91412171.120 8        48.800    23294345.076 7 121299765.813 7        45.500                                                    23294343.589 7  98565969.916 7        45.700    23294352.809 7  93796701.867 7        44.200
G29
I03  35757823.965 8 140321382.377 8        48.300
C11                                                                                                  24859212.836 6 129448449.075 6        37.400    24859231.674 7 100097841.393 7        43.900    24859217.960 7 105187497.535 7        43.500
C60                                                                                                  37416607.918 6 194838097.231 6        41.600                                                    37416592.336 7 158321851.674 7        44.700    37416603.931 7 150661164.892 7        45.000
R02  21893386.140 7 116827322.592 7        43.000    21893386.057 6 116827328.611 6        41.900    21893401.101 7  90865718.729 7        43.600    21893400.740 7  90865676.733 7        43.500
G16  20325251.424 7 106809925.021 7        46.600                                                    20325271.434 6  83228595.328 6        37.900
R01  19160359.007 7 102423105.223 7        46.300    19160355.818 7 102423058.235 7        45.300    19160370.436 7  79662422.383 7        43.400    19160371.458 7  79662391.388 7        42.600
G27  22938488.197 6 120542592.142 6        41.200                                                                                                    22938517.728 6  93929305.984 6        40.700    22938516.859 7  90015586.088 7        46.500
G31  21230180.613 7 111565356.274 7        47.600                                                                                                    21230196.310 7  86934062.604 7        45.200
E07  25860181.338 7 135896157.141 7        45.300    25860206.698 7 101480877.314 7        46.200    25860201.688 7 104128143.198 7        46.900    25860205.548 8 102804549.562 8        48.800    25860186.416 7 110305247.007 7        46.300
E27  25028566.534 7 131526009.012 7        47.400    25028578.357 7  98217482.486 7        47.800    25028575.333 8 100779685.072 8        49.200    25028578.899 8  99498527.580 8        50.600    25028566.554 8 106758050.371 8        49.300
E21  23547763.319 8 123744334.238 8        50.300    23547777.619 8  92406688.903 8        50.700    23547773.708 8  94817292.655 8        50.400    23547777.724 8  93611762.577 8        52.900    23547764.566 8 100441771.942 8        52.600
E29  23171856.411 8 121768926.900 8        50.100    23171867.478 8  90931337.579 8        49.400    23171864.567 8  93303667.157 8        50.700    23171868.068 8  92117340.162 8        52.600    23171855.980 8  98838323.079 8        51.600
E19  24481104.888 7 128649084.393 7        43.200    24481116.188 7  96069093.269 7        42.600    24481113.550 7  98575261.689 7        44.400    24481116.584 7  97322146.272 7        45.900    24481103.476 7 104422880.505 7        43.900
> 2024 10 17  8 46 30.0000000  0 46       -.000392605000
C33
C41  22385938.631 8 117638852.895 8        48.500    22385961.160 8  87847313.365 8        49.300    22385942.658 8 116569468.231 8        49.100                                                    22385945.046 7  94722214.699 7        45.800    22385958.878 7  90138973.978 7        47.100
C40  36994977.472 7 194410102.005 7        46.400    36994989.904 7 145176429.116 7        46.400    36994982.439 7 192642582.963 7        46.200                                                    36994978.147 7 156537857.019 7        45.900    36994987.175 7 148963493.017 7        42.900
C39  36705819.119 7 192890403.459 7        46.600    36705822.894 7 144041586.563 7        47.800    36705822.604 7 191136850.438 7        46.700                                                    36705811.968 7 155314319.721 7        44.900    36705820.713 7 147799131.190 7        44.900
C25  23713123.890 7 124613257.845 7        44.600    23713130.938 7  93055219.626 7        46.400    23713128.909 7 123480472.473 7        45.600                                                    23713120.629 7 100337976.457 7        44.500    23713128.316 7  95482933.650 7        43.100
C23  22700498.219 8 119291887.494 8        48.000    22700501.507 8  89081647.063 8        49.800    22700502.773 8 118207483.319 8        48.700                                                    22700489.559 7  96053236.527 7        45.700    22700499.346 7  91405508.423 7        46.600
C16                                                                                                  36924998.797 7 192278163.313 7        45.100    36925002.415 7 148681627.482 7        45.400    36924991.184 6 156241733.590 6        41.300
C13                                                                                                  38616158.660 6 201084467.848 6        39.500    38616174.739 6 155491219.098 6        41.300    38616162.184 6 163397575.773 6        40.800
C04                                                                                                  38477062.674 6 200360167.739 6        36.800    38477069.479 6 154931220.845 6        41.500    38477061.706 6 162809042.247 6        40.700
C02                                                                                                  36865235.601 6 191966957.532 6        37.500    36865239.395 7 148441047.375 7        45.500    36865232.401 7 155988867.681 7        42.100
C01                                                                                                  37315261.335 6 194310359.138 6        39.000    37315267.592 7 150253124.000 7        43.100    37315260.009 6 157893079.221 6        41.000
C06                                                                                                  36787365.455 7 191561463.224 7        43.400    36787362.402 7 148127428.225 7        44.300    36787354.695 7 155659354.575 7        43.100
R12  20660396.745 8 110364147.082 8        49.300    20660394.953 8 110364109.088 8        48.400    20660411.608 7  85838797.049 7        46.000    20660411.790 7  85838765.055 7        44.800
R11  21447841.404 7 114610758.913 7        46.800    21447840.159 7 114610706.923 7        46.400    21447850.191 7  89141675.424 7        46.700    21447849.912 7  89141689.428 7        45.300
R21  23442502.759 7 125445554.832 7        43.200    23442499.525 6 125445543.838 6        41.600    23442533.049 7  97568955.546 7        44.300    23442532.802 7  97568896.543 7        42.600    23442521.513 6  93993298.553 6        39.100
I02  39913787.335 6 156630271.406 6        38.000
C43  24359113.466 7 128007959.921 7        42.600    24359137.324 7  95590337.849 7        44.900    24359117.843 6 126844315.645 6        41.800                                                    24359120.264 7 103071374.174 7        42.100    24359131.759 6  98084136.924 6        40.900
C37
C34  25132523.702 7 132072348.958 7        42.200    25132543.591 7  98625518.234 7        42.200    25132526.476 6 130871686.521 6        41.100                                                    25132529.241 7 106343944.200 7        42.000    25132538.436 6 101198335.635 6        39.000
J04  35802160.541 7 188141636.835 7        43.500    35802162.976 7 188141600.818 7        46.500    35802160.247 7 188141637.224 7        45.200    35802185.362 7 146603906.319 7        47.600    35802184.894 8 140495406.827 8        48.900
J07  36391669.977 6 191239515.506 6        39.900    36391672.055 7 191239512.506 7        42.500    36391665.846 7 191239525.246 7        45.800    36391692.144 8 149017848.572 8        49.000    36391691.292 8 142808767.810 8        50.200
R13  23205690.336 5 123917138.656 5        33.800    23205687.291 5 123917122.608 5        32.400
G26  20282531.345 8 106585431.257 8        48.500                                                                                                    20282552.456 8  83053608.271 8        48.000    20282547.403 8  79593048.410 8        50.800
J02  38493690.321 7 202285712.759 7        46.100    38493692.598 8 202285489.767 8        48.300    38493688.576 7 202285720.010 7        46.800    38493710.828 8 157625271.785 8        48.600    38493708.539 8 151057547.046 8        49.200
R08  21139391.684 7 113200485.316 7        47.000    21139390.682 7 113200442.340 7        45.500    21139409.878 7  88044839.218 7        46.600    21139409.313 7  88044803.222 7        46.400
I10  36177638.819 8 141968830.975 8        48.900
G28  22266691.689 7 117012262.104 7        42.200    22266693.652 7 117012223.113 7        44.900                                                    22266711.745 7  91178396.523 7        47.100    22266712.589 8  87379282.260 8        48.300
I09  38392713.837 7 150661255.927 7        45.500
G32  22311301.920 7 117246691.437 7        43.700                                                                                                    22311331.294 7  91361064.657 7        44.600    22311327.650 7  87554323.970 7        46.100
C03                                                                                                  36035043.175 6 187643942.805 6        40.600    36035044.988 7 145098195.619 7        44.600    36035037.764 7 152476040.828 7        43.800
C59                                                                                                  36938709.920 7 192349558.244 7        42.100                                                    36938693.865 7 156299707.801 7        44.900    36938703.399 7 148736851.884 7        44.800
C32  23285808.464 7 122367698.198 7        46.700    23285823.536 8  91378683.335 8        49.300    23285811.612 7 121255329.015 7        45.000                                                    23285809.994 7  98529861.354 7        45.500    23285819.264 7  93762340.502 7        44.200
G29
I03  35747563.383 8 140281115.993 8        48.300
C11                                                                                                  24851066.005 6 129406022.971 6        37.500    24851084.214 7 100065035.138 7        44.800    24851070.436 7 105153023.090 7        43.200
C60                                                                                                  37416200.595 6 194835976.313 6        41.700                                                    37416184.823 7 158320128.309 7        44.600    37416196.524 7 150659524.935 7        45.000
R02  21872314.180 7 116714877.828 7        43.800    21872313.837 7 116714883.832 7        43.000    21872328.272 7  90778261.682 7        43.900    21872328.311 7  90778219.691 7        43.400
G16  20318728.865 7 106775649.979 7        46.100                                                    20318749.220 6  83201887.695 6        37.900
R01  19158600.886 7 102413709.605 7        45.700    19158598.370 7 102413662.625 7        44.700    19158613.458 7  79655114.626 7        43.800    19158613.955 7  79655083.624 7        42.700
G27  22917372.657 7 120431623.729 7        42.200                                                                                                    22917401.727 7  93842837.346 7        42.000    22917399.652 7  89932720.332 7        46.200
G31  21230087.756 7 111564874.425 7        45.300                                                                                                    21230103.945 7  86933687.164 7        44.700
E07  25871600.950 7 135956166.702 7        45.300    25871626.172 7 101525689.568 7        46.200    25871620.826 7 104174124.498 7        46.500    25871625.189 8 102849946.335 8        48.500    25871606.340 7 110353955.999 7        47.000
E27  25039816.824 7 131585126.643 7        47.800    25039827.705 7  98261628.786 7        46.700    25039825.227 8 100824983.013 8        49.500    25039828.574 8  99543249.694 8        50.700    25039816.347 8 106806035.474 8        49.200
E21  23547059.635 8 123740638.162 8        50.500    23547074.054 8  92403928.974 8        50.500    23547070.485 8  94814460.721 8        50.700    23547074.313 8  93608966.643 8        52.600    23547061.146 8 100438771.975 8        52.700
E29  23170744.996 8 121763084.609 8        50.100    23170755.672 8  90926974.798 8        49.800    23170752.877 8  93299190.561 8        50.500    23170756.347 8  92112920.472 8        52.400    23170744.442 8  98833580.935 8        51.700
E19  24468697.463 7 128583884.617 7        43.200    24468708.794 6  96020405.185 6        41.600    24468706.632 7  98525303.480 7        44.800    24468709.430 7  97272823.118 7        46.100    24468696.135 7 104369958.669 7        43.500
> 2024 10 17  8 47  0.0000000  0 46       -.000394781000
C33
C41  22395243.596 8 117687752.419 8        48.500    22395266.475 8  87883829.175 8        49.600    22395247.770 8 116617923.206 8        48.500                                                    22395250.744 7  94761588.299 7        45.900    22395263.904 7  90176442.373 7        47.000
C40  36986816.014 7 194367213.908 7        46.500    36986828.228 7 145144402.448 7        47.000    36986821.523 7 192600084.771 7        46.600                                                    36986816.968 7 156503323.870 7        45.300    36986825.355 7 148930630.854 7        42.900
C39  36702634.606 7 192873667.420 7        46.500    36702637.930 7 144029088.908 7        47.900    36702638.014 7 191120266.547 7        46.200                                                    36702627.086 7 155300843.974 7        44.500    36702635.903 7 147786307.504 7        45.100
C25  23721780.414 7 124658748.187 7        44.300    23721787.484 7  93089189.651 7        46.700    23721784.304 7 123525549.285 7        44.600                                                    23721776.958 7 100374605.011 7        44.200    23721784.761 7  95517789.852 7        43.300
C23  22701036.823 7 119294720.257 7        47.700    22701040.391 8  89083762.556 8        49.500    22701042.206 8 118210290.335 8        48.300                                                    22701028.463 7  96055517.533 7        45.700    22701038.075 7  91407679.076 7        46.600
C16                                                                                                  36922080.108 7 192262962.206 7        45.600    36922082.664 7 148669873.058 7        45.400    36922071.674 7 156229381.476 7        42.300
C13                                                                                                  38626422.041 6 201137915.708 6        40.400    38626439.142 6 155532548.337 6        41.200    38626425.980 6 163441006.511 6        41.200
C04                                                                                                  38476578.378 6 200357643.888 6        36.400    38476584.723 7 154929269.312 7        42.000    38476576.892 6 162806991.466 6        40.500
C02                                                                                                  36864835.441 6 191964877.702 6        37.500    36864839.886 7 148439439.188 7        45.500    36864832.914 6 155987177.684 6        41.900
C01                                                                                                  37314766.473 6 194307779.538 6        38.800    37314772.287 7 150251129.359 7        43.200    37314764.644 6 157890983.136 6        41.400
C06                                                                                                  36784848.338 7 191548354.427 7        43.400    36784845.131 7 148117291.715 7        44.300    36784836.921 7 155648702.639 7        42.100
R12  20659559.977 8 110359681.891 8        49.300    20659558.631 7 110359643.903 7        47.700    20659575.354 7  85835324.409 7        44.900    20659575.005 7  85835292.415 7        44.200
R11  21460025.345 8 114675853.801 8        48.500    21460022.169 7 114675801.804 7        46.100    21460032.168 7  89192304.771 7        46.700    21460031.725 7  89192318.775 7        46.200
R21  23430953.116 7 125383750.904 7        43.700    23430950.072 7 125383739.922 7        42.000    23430982.795 7  97520886.174 7        43.000    23430982.410 7  97520827.181 7        42.100    23430970.798 6  93946990.792 6        40.100
I02  39910679.040 6 156618077.041 6        38.100
C43  24347866.842 7 127948861.921 7        42.600    24347891.002 7  95546206.396 7        45.100    24347870.531 6 126785754.896 6        41.700                                                    24347873.606 7 103023788.894 7        42.600    24347885.198 6  98038854.200 6        40.600
C37
C34  25130553.624 6 132061997.194 6        41.100    25130572.385 7  98617788.469 7        42.000    25130557.790 6 130861428.876 6        41.800                                                    25130559.615 6 106335609.341 6        41.600    25130568.244 6 101190404.188 6        38.800
J04  35799667.107 7 188128531.168 7        43.800    35799668.710 7 188128495.167 7        46.400    35799666.362 7 188128531.561 7        44.800    35799691.088 7 146593694.124 7        47.000    35799690.868 8 140485620.134 8        49.300
J07  36391036.836 6 191236184.387 6        37.700    36391037.986 7 191236181.394 7        42.400    36391032.073 7 191236194.130 7        46.300    36391058.302 8 149015252.935 8        49.600    36391057.398 8 142806280.335 8        50.300
R13  23194727.292 5 123858584.474 5        33.200    23194721.879 5 123858568.462 5        31.900
G26  20289086.187 8 106619878.173 8        48.800                                                                                                    20289106.691 8  83080450.095 8        48.000    20289102.449 8  79618771.850 8        51.100
J02  38497745.845 7 202307021.023 7        47.000    38497747.791 8 202306798.017 8        48.400    38497744.185 7 202307028.274 7        46.800    38497765.430 8 157641875.665 8        49.300    38497763.399 8 151073459.095 8        49.100
R08  21159617.179 7 113308791.047 7        45.700    21159616.245 7 113308748.057 7        45.100    21159635.376 7  88129076.857 7        46.000    21159634.611 7  88129040.840 7        45.300
I10  36176690.789 7 141965110.854 7        47.200
G28  22271199.973 6 117035958.020 6        41.800    22271202.670 7 117035919.028 7        44.500                                                    22271220.845 7  91196860.792 7        47.300    22271222.053 8  87396977.169 8        48.700
I09  38392449.057 7 150660218.681 7        42.700
G32  22325792.011 7 117322834.385 7        43.700                                                                                                    22325820.363 7  91420396.700 7        44.400    22325817.565 7  87611183.822 7        47.200
C03                                                                                                  36034529.888 6 187641269.783 6        40.600    36034531.584 7 145096128.731 7        44.800    36034524.554 7 152473868.836 7        44.100
C59                                                                                                  36938316.903 7 192347510.524 7        42.100                                                    36938300.577 7 156298043.905 7        44.900    36938310.077 7 148735268.514 7        44.900
C32  23277362.563 7 122323314.030 7        47.300    23277377.081 8  91345539.286 8        48.200    23277365.341 7 121211348.328 7        46.400                                                    23277363.923 7  98494123.427 7        45.400    23277373.612 7  93728331.822 7        44.400
G29
I03  35737304.937 7 140240859.399 7        47.900
C11                                                                                                  24842969.669 6 129363855.576 6        38.100    24842986.236 7 100032428.942 7        43.900    24842972.770 7 105118758.885 7        43.500
C60                                                                                                  37415794.764 6 194833864.183 6        41.600                                                    37415779.287 7 158318412.088 7        44.700    37415790.858 7 150657891.771 7        45.000
R02  21851313.491 7 116602818.630 7        44.200    21851314.129 7 116602824.619 7        43.800    21851329.561 7  90691104.564 7        44.600    21851328.128 7  90691062.560 7        43.600
G16  20312304.336 7 106741889.749 7        46.300                                                    20312324.827 6  83175581.201 6        38.400
R01  19156995.982 7 102405132.272 7        45.700    19156993.498 7 102405085.290 7        44.600    19157009.420 7  79648443.294 7        42.700    19157009.510 7  79648412.291 7        43.000
G27  22896273.060 7 120320749.035 7        43.100                                                                                                    22896302.434 6  93756441.697 6        41.800    22896300.494 7  89849924.571 7        47.200
G31  21230012.014 7 111564475.945 7        44.500                                                                                                    21230028.247 7  86933376.716 7        45.200
E07  25883066.965 7 136016418.348 7        45.000    25883091.292 7 101570682.636 7        46.000    25883087.013 7 104220291.282 7        46.800    25883090.689 8 102895526.255 8        48.600    25883072.443 7 110402861.532 7        47.400
E27  25051085.715 7 131644345.023 7        47.700    25051096.671 7  98305850.321 7        47.400    25051094.126 8 100870358.134 8        49.400    25051097.365 8  99588048.020 8        49.800    25051085.093 8 106854102.359 8        49.100
E21  23546413.672 8 123737242.944 8        49.700    23546427.735 8  92401393.724 8        50.600    23546424.154 8  94811859.313 8        50.500    23546428.134 8  93606398.316 8        52.400    23546415.017 8 100436016.209 8        52.800
E29  23169696.965 8 121757578.771 8        50.300    23169707.907 8  90922863.268 8        49.900    23169705.261 8  93294971.774 8        50.500    23169708.660 8  92108755.312 8        52.400    23169696.780 8  98829111.886 8        51.800
E19  24456321.600 7 128518847.005 7        43.600    24456332.637 7  95971838.180 7        42.400    24456330.376 7  98475469.520 7        45.300    24456333.261 7  97223622.646 7        45.700    24456320.062 7 104317168.439 7        43.200
> 2024 10 17  8 47 30.0000000  0 45       -.000396952000
C33
C41  22404628.980 8 117737072.615 8        48.500    22404651.960 8  87920659.132 8        49.700    22404633.241 8 116666795.044 8        49.200                                                    22404635.890 7  94801300.617 7        45.300    22404649.196 7  90214233.118 7        46.600
C40  36978678.301 7 194324446.938 7        47.000    36978689.656 7 145112466.230 7        46.500    36978682.879 7 192557706.588 7        45.900                                                    36978678.680 7 156468888.243 7        45.100    36978686.670 7 148897861.503 7        42.800
C39  36699439.886 7 192856880.896 7        46.600    36699443.581 8 144016553.566 8        48.600    36699443.865 7 191103632.634 7        45.900                                                    36699432.865 7 155287327.581 7        45.700    36699441.684 7 147773445.141 7        45.000
C25  23730430.522 7 124704204.978 7        44.600    23730437.493 7  93123134.604 7        46.600    23730434.958 7 123570592.823 7        45.200                                                    23730427.212 7 100411206.538 7        45.100    23730434.867 7  95552620.337 7        43.500
C23  22701594.318 8 119297648.807 8        48.300    22701597.410 8  89085949.583 8        49.400    22701598.696 8 118213192.276 8        48.100                                                    22701585.114 7  96057875.681 7        45.800    22701594.805 7  91409923.157 7        46.100
C16                                                                                                  36919147.853 7 192247691.232 7        45.300    36919149.842 7 148658064.614 7        45.100    36919139.161 6 156216972.592 6        41.800
C13                                                                                                  38636687.795 6 201191371.204 6        39.800    38636705.102 6 155573883.500 6        41.700    38636691.461 6 163484443.453 6        41.200
C04                                                                                                  38476095.727 6 200355127.792 6        36.400    38476101.607 7 154927323.783 7        42.100    38476093.709 6 162804946.995 6        40.800
C02                                                                                                  36864437.992 6 191962808.852 6        37.200    36864442.546 7 148437839.486 7        45.900    36864435.607 6 155985496.645 6        41.900
C01                                                                                                  37314272.415 6 194305208.761 6        39.000    37314278.382 7 150249141.521 7        43.300    37314270.996 6 157888894.215 6        41.100
C06                                                                                                  36782317.318 7 191535175.598 7        44.000    36782314.512 7 148107101.049 7        44.600    36782306.137 7 155637993.799 7        43.600
R12  20658778.496 8 110355506.608 8        49.200    20658776.483 8 110355468.606 8        49.000    20658792.595 7  85832077.208 7        45.900    20658793.088 7  85832045.206 7        44.700
R11  21472200.967 7 114740932.539 7        47.500    21472200.701 7 114740880.563 7        46.800    21472209.968 7  89242921.558 7        45.900    21472210.314 7  89242935.563 7        45.600
R21  23419467.327 7 125322290.427 7        42.500    23419463.432 6 125322279.451 6        41.200    23419495.549 6  97473083.893 6        39.800    23419496.324 6  97473024.915 6        40.200    23419487.282 6  93900940.406 6        39.900
I02  39907578.288 6 156605903.350 6        39.200
C43  24336653.619 7 127889929.675 7        42.700    24336676.038 7  95502198.708 7        45.300    24336654.376 6 126727358.425 6        40.800                                                    24336658.666 7 102976337.062 7        42.100    24336670.716 6  97993698.477 6        40.700
C34  25128657.305 6 132052028.645 6        40.900    25128675.130 7  98610344.887 7        42.600    25128662.695 7 130851550.935 7        42.600                                                    25128662.202 7 106327583.044 7        42.300    25128671.187 6 101182766.344 6        38.700
J04  35797191.588 7 188115521.241 7        45.000    35797193.330 7 188115485.237 7        46.900    35797190.405 7 188115521.633 7        45.100    35797215.627 7 146583556.532 7        47.200    35797215.024 8 140475904.941 8        48.900
J07  36390404.018 6 191232863.462 6        38.300    36390406.009 7 191232860.455 7        42.300    36390400.301 7 191232873.202 7        45.500    36390426.628 8 149012665.246 8        49.100    36390425.357 8 142803800.469 8        50.400
R13  23183814.245 5 123800321.969 5        31.500    23183810.960 5 123800305.931 5        30.300
G26  20295707.006 8 106654666.542 8        49.400                                                                                                    20295726.934 7  83107557.985 7        47.500    20295722.481 8  79644750.276 8        51.000
J02  38501801.253 7 202328333.199 7        46.000    38501802.940 8 202328110.186 8        48.300    38501799.828 7 202328340.450 7        46.900    38501821.152 8 157658482.592 8        48.000    38501818.819 8 151089374.078 8        49.100
R08  21179922.567 7 113417519.746 7        46.700    21179920.349 7 113417476.785 7        44.700    21179939.382 7  88213643.464 7        45.300    21179938.923 7  88213607.453 7        45.400
I10  36175745.336 8 141961400.510 8        48.700
G28  22275728.240 7 117059740.427 7        43.200    22275729.578 7 117059701.437 7        45.200                                                    22275746.929 7  91215392.461 7        47.000    22275747.335 8  87414736.666 8        48.300
I09  38392197.640 7 150659232.099 7        45.500
G32  22340353.468 7 117399353.550 7        44.600                                                                                                    22340381.242 7  91480021.928 7        44.300    22340378.725 7  87668324.605 7        47.000
C03                                                                                                  36034017.988 6 187638605.528 6        40.600    36034019.779 7 145094068.628 7        45.000    36034012.776 7 152471703.968 7        44.400
C59                                                                                                  36937925.340 6 192345472.323 6        41.900                                                    36937909.077 7 156296387.736 7        45.000    36937918.744 7 148733692.496 7        44.800
C32  23269004.074 7 122279392.011 7        47.200    23269019.129 8  91312740.366 8        48.600    23269007.573 7 121167825.605 7        46.700                                                    23269005.803 7  98458757.652 7        45.600    23269015.418 7  93694677.275 7        43.700
G29
I03  35727048.908 8 140200613.125 8        48.400
C11                                                                                                  24834922.986 6 129321949.711 6        39.400    24834938.326 7 100000024.949 7        44.400    24834925.105 7 105084707.111 7        43.000
C60                                                                                                  37415391.003 6 194831761.489 6        41.600                                                    37415375.319 7 158316703.528 7        44.300    37415386.958 7 150656265.902 7        44.900
R02  21830388.187 7 116491150.194 7        45.200    21830387.591 7 116491156.184 7        44.100    21830403.145 7  90604251.393 7        45.100    21830402.064 7  90604209.388 7        43.000
G16  20305977.836 7 106708644.839 7        46.400                                                    20305998.491 6  83149676.265 6        38.300
R01  19155545.243 7 102397374.777 7        46.000    19155542.883 7 102397327.789 7        45.100    19155558.046 7  79642409.613 7        42.800    19155558.402 7  79642378.613 7        42.800
G27  22875191.625 7 120209971.832 7        42.900                                                                                                    22875221.737 7  93670122.041 7        43.000    22875220.019 7  89767201.607 7        47.400
G31  21229952.146 7 111564161.584 7        44.700                                                                                                    21229969.036 7  86933131.791 7        45.400
E07  25894577.976 7 136076911.993 7        44.900    25894602.675 7 101615856.387 7        46.000    25894598.256 7 104266643.517 7        46.000    25894602.461 8 102941289.253 8        48.200    25894583.806 7 110451963.454 7        47.500
E27  25062373.504 7 131703663.207 7        47.700    25062384.565 7  98350146.383 7        47.000    25062382.105 8 100915809.738 8        49.300    25062385.166 8  99632921.857 8        49.900    25062372.641 8 106902250.240 8        49.000
E21  23545824.618 8 123734148.306 8        50.300    23545838.687 8  92399082.909 8        50.400    23545834.791 8  94809488.207 8        50.400    23545839.139 8  93604057.354 8        52.000    23545826.073 8 100433504.429 8        52.800
E29  23168713.395 8 121752410.896 8        49.900    23168724.656 8  90919004.104 8        49.900    23168722.036 8  93291011.947 8        50.400    23168725.277 8  92104845.814 8        52.100    23168713.666 8  98824917.163 8        51.900
E19  24443976.547 7 128453973.767 7        44.000    24443987.918 7  95923393.959 7        42.200    24443985.434 7  98425761.521 7        44.900    24443988.280 7  97174546.532 7        45.700    24443974.993 7 104264511.620 7        43.400
> 2024 10 17  8 48  0.0000000  0 45       -.000399115000
C33
C41  22414094.679 8 117786812.242 8        48.900    22414117.603 8  87957802.292 8        50.100    22414098.448 8 116716082.492 8        49.200                                                    22414100.932 7  94841350.671 7        45.800    22414114.467 7  90252345.244 7        46.300
C40  36970563.159 7 194281802.033 7        47.300    36970574.453 7 145080621.168 7        47.000    36970567.386 7 192515449.369 7        46.300                                                    36970563.896 7 156434550.911 7        45.100    36970571.673 7 148865185.680 7        43.100
C39  36696236.077 7 192840044.729 7        46.600    36696239.820 8 144003981.136 8        48.500    36696239.132 7 191086949.510 7        46.300                                                    36696229.132 7 155273771.209 7        45.400    36696237.782 7 147760544.732 7        45.000
C25  23739074.580 7 124749628.409 7        44.600    23739081.007 7  93157054.653 7        46.700    23739078.018 7 123615603.329 7        44.500                                                    23739070.816 7 100447781.218 7        44.500    23739078.697 7  95587425.271 7        43.400
C23  22702170.228 8 119300672.647 8        48.100    22702172.866 8  89088207.764 8        49.600    22702174.472 8 118216188.618 8        48.200                                                    22702160.517 7  96060310.533 7        45.800    22702169.982 7  91412240.225 7        45.800
C16                                                                                                  36916201.475 7 192232351.067 7        45.400    36916203.968 7 148646202.675 7        45.600    36916193.331 6 156204507.491 6        41.400
C13                                                                                                  38646954.993 6 201244833.734 6        39.900    38646971.637 6 155615224.094 6        41.300    38646958.295 6 163527886.118 6        41.600
C04                                                                                                  38475613.588 6 200352619.936 6        36.300    38475620.073 6 154925384.625 6        41.700    38475612.031 6 162802909.223 6        40.900
C02                                                                                                  36864042.943 6 191960751.483 6        37.400    36864047.569 7 148436248.667 7        46.600    36864040.530 6 155983824.912 6        41.300
C01                                                                                                  37313780.431 6 194302647.278 6        38.900    37313786.522 7 150247160.878 7        43.800    37313779.015 6 157886812.849 6        40.800
C06                                                                                                  36779773.659 7 191521927.370 7        43.900    36779770.418 7 148096856.720 7        45.300    36779762.046 7 155627228.554 7        42.600
R12  20658051.262 8 110351619.313 8        50.000    20658048.587 8 110351581.319 8        48.700    20658065.326 7  85829054.031 7        46.500    20658065.393 7  85829022.045 7        45.600
R11  21484378.872 7 114805993.877 7        47.800    21484375.985 7 114805941.881 7        46.700    21484386.330 7  89293524.838 7        46.700    21484385.530 7  89293538.819 7        45.600
R21  23408042.983 6 125261178.025 6        41.800    23408042.862 6 125261167.051 6        41.300    23408074.662 6  97425552.431 6        41.300    23408074.991 6  97425493.448 6        40.700    23408066.532 6  93855150.833 6        39.400
I02  39904481.931 6 156593750.312 6        40.600
C43  24325470.783 7 127831166.100 7        42.500    24325493.260 7  95458317.019 7        45.800    24325473.388 6 126669129.047 6        40.900                                                    24325476.499 6 102929021.058 6        41.700    24325488.600 6  97948672.003 6        40.600
C34  25126832.261 6 132042444.916 6        41.100    25126850.112 7  98603188.675 7        42.400    25126837.889 7 130842054.389 7        42.300                                                    25126838.029 7 106319866.620 7        42.100    25126847.288 6 101175423.388 6        38.900
J04  35794734.069 7 188102607.508 7        44.800    35794736.310 7 188102571.495 7        46.800    35794733.355 7 188102607.900 7        45.300    35794758.197 7 146573493.896 7        47.000    35794757.783 8 140466261.587 8        48.800
J07  36389774.178 6 191229553.219 6        40.300    36389775.871 7 191229550.210 7        42.300    36389770.056 7 191229562.965 7        46.100    36389796.468 8 149010085.870 8        49.100    36389795.467 8 142801328.585 8        50.300
R13  23172955.268 4 123742350.826 4        28.300    23172953.151 4 123742334.80714        27.200
G26  20302391.614 8 106689794.641 8        48.600                                                                                                    20302411.509 7  83134930.618 7        47.200    20302407.034 8  79670982.388 8        51.300
J02  38505857.354 7 202349649.428 7        45.800    38505859.574 8 202349426.421 8        48.200    38505855.954 7 202349656.687 7        46.300    38505877.108 8 157675092.686 8        48.200    38505875.114 8 151105292.095 8        49.300
R08  21200303.846 7 113526667.934 7        46.500    21200302.907 7 113526624.959 7        45.300    21200322.291 7  88298536.322 7        45.500    21200321.822 7  88298500.333 7        44.700
I10  36174802.524 8 141957700.343 8        48.200
G28  22280270.055 7 117083610.701 7        42.500    22280271.462 7 117083571.702 7        44.600                                                    22280289.664 7  91233992.569 7        47.500    22280289.819 8  87432561.768 8        48.600
I09  38391959.063 7 150658296.605 7        44.100
G32  22354986.048 7 117476247.786 7        45.100                                                                                                    22355015.518 7  91539939.391 7        45.500    22355011.475 7  87725745.495 7        46.100
C03                                                                                                  36033508.378 6 187635950.554 6        40.500    36033509.776 7 145092015.688 7        45.100    36033502.889 7 152469546.633 7        43.800
C59                                                                                                  36937535.497 6 192343444.017 6        41.800                                                    36937519.516 7 156294739.607 7        44.500    36937529.083 7 148732124.124 7        44.700
C32  23260733.996 7 122235933.854 7        47.200    23260749.475 8  91280287.821 8        48.400    23260738.331 7 121124762.525 7        47.300                                                    23260736.113 7  98423765.356 7        45.800    23260745.397 7  93661378.147 7        43.600
G29
I03  35716795.808 7 140160377.419 7        47.900
C11                                                                                                  24826922.304 6 129280308.031 6        37.900    24826942.361 7  99967825.205 7        45.100    24826927.250 7 105050870.065 7        42.500
C60                                                                                                  37414988.995 6 194829668.698 6        41.700                                                    37414973.479 7 158315003.014 7        44.300    37414984.963 7 150654647.679 7        44.900
R02  21809536.730 7 116379877.153 7        46.300    21809534.950 7 116379883.160 7        44.300    21809549.215 7  90517705.773 7        44.300    21809549.548 7  90517663.771 7        43.300
G16  20299749.755 7 106675915.517 7        45.800                                                    20299770.062 6  83124173.070 6        38.200
R01  19154247.486 7 102390437.941 7        45.500    19154244.984 7 102390390.946 7        44.900    19154260.016 7  79637014.232 7        42.400    19154260.636 7  79636983.226 7        42.300
G27  22854130.963 7 120099295.786 7        42.300                                                                                                    22854161.130 7  93583881.191 7        43.800    22854159.014 7  89684554.193 7        47.200
G31  21229908.385 7 111563932.070 7        45.500                                                                                                    21229925.233 7  86932953.003 7        45.500
E07  25906136.032 7 136137647.403 7        44.900    25906159.804 7 101661210.699 7        45.300    25906156.003 7 104313180.957 7        46.900    25906159.853 8 102987235.134 8        48.200    25906141.502 7 110501261.639 7        47.500
E27  25073680.317 7 131763080.132 7        46.700    25073691.064 7  98394516.158 7        47.200    25073688.769 8 100961336.990 8        49.000    25073691.823 8  99677870.375 8        50.300    25073679.782 8 106950478.261 8        49.100
E21  23545292.558 8 123731353.712 8        49.300    23545307.001 8  92396996.180 8        50.300    23545302.935 8  94807347.020 8        50.100    23545307.200 8  93601943.397 8        52.400    23545293.989 8 100431236.186 8        52.700
E29  23167794.803 8 121747582.312 8        49.200    23167806.200 8  90915398.291 8        49.800    23167803.169 8  93287312.083 8        50.400    23167806.466 8  92101192.987 8        52.100    23167794.874 8  98820997.834 8        51.900
E19  24431663.321 7 128389267.120 7        43.900    24431674.455 7  95875074.083 7        42.500    24431672.073 7  98376181.126 7        44.900    24431674.918 7  97125596.392 7        46.300    24431661.561 7 104211990.016 7        43.700
> 2024 10 17  8 48 30.0000000  0 45       -.000401272000
C33
C41  22423639.206 8 117836970.016 8        48.900    22423662.486 8  87995257.696 8        49.900    22423643.191 8 116765784.271 8        48.500                                                    22423645.881 7  94881737.386 7        46.500    22423658.897 7  90290777.749 7        46.000
C40  36962471.383 7 194239280.078 7        47.200    36962482.680 7 145048867.924 7        47.000    36962475.540 7 192473313.978 7        45.700                                                    36962471.865 7 156400312.565 7        45.500    36962479.925 7 148832604.067 7        43.000
C39  36693023.218 7 192823159.727 7        46.800    36693026.637 8 143991372.223 8        48.100    36693026.329 7 191070218.012 7        46.100                                                    36693015.988 7 155260175.512 7        44.600    36693024.601 7 147747606.897 7        45.000
C25  23747712.238 7 124795018.541 7        44.300    23747717.918 7  93190949.800 7        46.100    23747714.938 7 123660580.807 7        44.100                                                    23747708.364 7 100484329.045 7        44.300    23747715.586 7  95622204.648 7        43.100
C23  22702763.057 7 119303791.107 7        47.800    22702766.471 8  89090536.584 8        49.600    22702768.175 8 118219278.722 8        48.400                                                    22702754.122 7  96062821.576 7        45.400    22702763.522 7  91414629.786 7        45.900
C16                                                                                                  36913242.765 7 192216942.377 7        45.200    36913244.902 7 148634287.744 7        45.500    36913233.990 6 156191986.704 6        41.900
C13                                                                                                  38657223.535 6 201298303.343 6        39.200    38657239.601 6 155656570.156 6        41.700    38657226.571 6 163571334.521 6        40.800
C04                                                                                                  38475134.395 6 200350120.746 6        36.600    38475139.904 7 154923452.157 7        42.400    38475132.075 6 162800878.469 6        40.300
C02                                                                                                  36863650.467 6 191958705.968 6        36.700    36863654.444 7 148434667.005 7        45.900    36863647.621 6 155982162.814 6        41.600
C01                                                                                                  37313290.423 6 194300095.512 6        39.100    37313296.496 7 150245187.746 7        44.300    37313288.868 6 157884739.369 6        41.300
C06                                                                                                  36777215.652 7 191508610.333 7        43.700    36777212.904 7 148086559.176 7        44.300    36777204.587 7 155616407.406 7        42.500
R12  20657376.497 8 110348018.300 8        50.100    20657374.870 8 110347980.313 8        49.200    20657390.623 7  85826253.500 7        46.700    20657391.051 7  85826221.491 7        45.500
R11  21496548.556 7 114871035.959 7        46.800    21496547.832 7 114870983.955 7        46.000    21496557.391 7  89344113.067 7        45.600    21496556.911 7  89344127.079 7        44.800
R21  23396691.645 6 125200418.169 6        41.400    23396689.678 6 125200407.182 6        40.800    23396720.906 7  97378295.168 7        43.300    23396720.045 6  97378236.180 6        40.800    23396710.885 6  93809625.451 6        40.600
I02  39901389.982 6 156581618.804 6        38.800
C43  24314321.223 7 127772574.031 7        42.600    24314343.681 7  95414563.397 7        45.100    24314323.170 6 126611069.661 6        41.600                                                    24314327.058 7 102881843.195 7        42.600    24314339.252 6  97903776.973 6        40.600
C34  25125081.528 7 132033247.581 7        42.100    25125100.181 7  98596320.955 7        42.300    25125086.432 6 130832940.681 6        41.800                                                    25125087.247 6 106312461.300 6        41.600    25125097.009 6 101168376.495 6        39.000
J04  35792295.143 7 188089790.372 7        45.200    35792296.939 7 188089754.363 7        46.700    35792294.632 7 188089790.764 7        46.200    35792318.832 7 146563506.511 7        47.200    35792318.873 8 140456690.351 8        48.900
J07  36389146.470 6 191226254.059 6        39.300    36389148.095 7 191226251.062 7        42.400    36389142.450 7 191226263.807 7        46.200    36389168.513 8 149007515.140 8        49.300    36389167.389 8 142798864.976 8        50.300
R13  23162155.485 4 123684670.98814        27.300    23162153.188 4 123684655.05614        26.900
G26  20309139.883 8 106725260.767 8        48.700                                                                                                    20309160.872 7  83162566.628 7        47.000    20309155.740 8  79697466.896 8        51.300
J02  38509914.131 7 202370969.866 7        45.700    38509916.338 8 202370746.875 8        48.300    38509912.591 7 202370977.125 7        46.700    38509933.900 8 157691706.071 8        48.300    38509932.116 8 151121213.256 8        49.200
R08  21220766.956 7 113636232.065 7        47.600    21220764.359 7 113636189.082 7        44.800    21220783.762 7  88383752.714 7        45.500    21220782.682 7  88383716.718 7        45.200
I10  36173862.540 8 141954010.632 8        48.300
G28  22284827.392 6 117107570.015 6        40.400    22284829.355 7 117107531.022 7        43.900                                                    22284849.064 7  91252662.104 7        47.300    22284849.256 8  87450453.364 8        48.400
I09  38391734.384 7 150657412.559 7        44.700
G32  22369688.998 7 117553516.003 7        43.800                                                                                                    22369718.869 7  91600148.273 7        44.900    22369715.950 7  87783445.643 7        47.200
C03                                                                                                  36033000.348 6 187633305.272 6        40.600    36033001.716 7 145089970.255 7        45.300    36032994.820 7 152467397.156 7        44.500
C59                                                                                                  36937148.039 6 192341426.099 6        41.800                                                    36937131.935 7 156293099.924 7        45.000    36937141.529 7 148730563.793 7        44.700
C32  23252553.642 8 122192941.246 8        48.000    23252568.321 8  91248182.912 8        48.400    23252556.710 7 121082160.752 7        46.700                                                    23252555.268 7  98389147.904 7        46.100    23252564.223 7  93628435.730 7        43.800
G29
I03  35706544.979 7 140120152.711 7        47.800
C11                                                                                                  24818977.572 6 129238933.093 6        38.700    24818995.351 7  99935831.772 7        44.400    24818981.762 7 105017249.772 7        42.600
C60                                                                                                  37414589.094 6 194827586.267 6        41.800                                                    37414573.526 7 158313310.912 7        44.600    37414585.053 7 150653037.467 7        45.100
R02  21788759.235 7 116269004.000 7        45.800    21788756.621 7 116269010.021 7        45.000    21788772.265 7  90431471.189 7        44.600    21788771.949 7  90431429.185 7        43.700
G16  20293619.216 7 106643701.700 7        46.500                                                    20293640.179 6  83099071.583 6        38.100
R01  19153104.710 7 102384322.718 7        45.900    19153101.326 7 102384275.725 7        44.500    19153116.125 7  79632257.857 7        43.100    19153116.787 7  79632226.860 7        42.500
G27  22833090.199 7 119988724.433 7        42.500                                                                                                    22833119.298 7  93497721.958 7        43.300    22833117.694 8  89601984.973 8        48.600
G31  21229881.206 7 111563788.215 7        46.100                                                                                                    21229897.781 7  86932840.941 7        45.500
E07  25917738.639 7 136198624.233 7        44.700    25917763.459 7 101706745.258 7        45.600    25917759.076 7 104359903.419 7        46.200    25917763.590 8 103033363.639 8        48.300    25917745.307 7 110550755.766 7        47.400
E27  25085004.830 7 131822594.626 7        46.600    25085016.440 7  98438958.813 7        47.300    25085013.987 8 101006939.015 8        49.200    25085017.034 8  99722892.716 8        50.300    25085004.938 8 106998785.489 8        49.000
E21  23544817.442 8 123728858.600 8        50.200    23544832.153 8  92395133.081 8        50.200    23544828.389 8  94805435.308 8        50.500    23544832.280 8  93600055.990 8        52.000    23544819.034 8 100429211.021 8        52.600
E29  23166940.947 8 121743094.283 8        50.200    23166952.302 8  90912046.798 8        49.400    23166949.022 8  93283873.161 8        50.800    23166952.480 8  92097797.772 8        52.600    23166940.734 8  98817354.905 8        52.000
E19  24419381.880 7 128324729.065 7        43.500    24419393.127 7  95826880.129 7        42.800    24419390.930 7  98326729.928 7        44.800    24419393.693 7  97076773.827 7        46.400    24419380.690 7 104159605.263 7        43.900
> 2024 10 17  8 49  0.0000000  0 45       -.000403419000
C33
C41  22433263.451 8 117887544.817 8        49.000    22433286.346 8  88033024.525 8        49.700    22433267.092 8 116815899.303 8        48.200                                                    22433270.199 7  94922459.898 7        45.700    22433282.852 7  90329529.805 7        45.800
C40  36954403.608 7 194196882.197 7        47.400    36954414.396 7 145017207.318 7        46.800    36954407.367 7 192431301.535 7        46.600                                                    36954403.914 7 156366174.127 7        44.900    36954411.725 7 148800117.524 7        43.200
C39  36689800.812 7 192806226.896 7        47.000    36689804.413 8 143978727.616 8        48.400    36689804.495 7 191053439.125 7        46.500                                                    36689794.027 7 155246541.313 7        44.900    36689802.492 7 147734632.424 7        44.900
C25  23756343.213 7 124840375.606 7        45.000    23756349.079 7  93224820.270 7        46.000    23756347.402 7 123705525.517 7        45.100                                                    23756339.971 7 100520850.280 7        44.600    23756347.079 7  95656958.709 7        43.100
C23  22703374.274 8 119307003.813 8        48.000    22703377.927 8  89092935.824 8        49.400    22703379.247 8 118222462.238 8        48.000                                                    22703365.566 7  96065408.530 7        45.600    22703374.755 7  91417091.598 7        45.900
C16                                                                                                  36910270.702 7 192201466.146 7        45.900    36910272.395 7 148622320.578 7        45.300    36910261.793 6 156179411.028 6        41.000
C13                                                                                                  38667493.403 6 201351779.775 6        39.200    38667509.602 6 155697921.494 6        41.300    38667496.270 6 163614788.480 6        40.300
C04                                                                                                  38474654.975 6 200347630.868 6        37.100    38474661.635 6 154921526.902 6        41.400    38474653.661 6 162798855.299 6        40.200
G03  22732278.458 5 119458920.66715        34.000                                                                                                    22732311.128 6  93084888.69216        39.500    22732312.242 7  89206385.28317        47.100
C02                                                                                                  36863259.753 6 191956673.208 6        36.800    36863264.042 7 148433095.207 7        46.000    36863257.134 6 155980511.066 6        41.400
C01                                                                                                  37312802.714 6 194297554.174 6        39.200    37312808.339 7 150243222.675 7        43.900    37312800.856 6 157882674.364 6        41.000
C06                                                                                                  36774645.198 7 191495225.383 7        43.700    36774642.223 7 148076209.112 7        44.400    36774634.029 7 155605531.061 7        43.200
R12  20656756.210 8 110344701.921 8        50.800    20656754.277 8 110344663.926 8        50.000    20656769.151 7  85823674.363 7        47.300    20656769.589 7  85823642.361 7        45.800
R11  21508716.978 7 114936058.273 7        47.000    21508715.738 7 114936006.269 7        46.400    21508724.999 7  89394685.970 7        45.500    21508725.298 7  89394699.975 7        45.600
R21  23385406.753 7 125140015.549 7        43.700    23385402.654 6 125140004.569 6        41.800    23385430.148 6  97331315.813 6        40.100    23385432.082 6  97331256.817 6        41.800    23385420.586 6  93764367.784 6        38.500
I02  39898304.623 6 156569509.229 6        40.300
C43  24303203.606 6 127714156.674 6        41.800    24303227.258 7  95370940.228 7        44.700    24303209.660 7 126553183.361 7        43.500                                                    24303211.017 7 102834805.971 7        42.800    24303222.891 6  97859015.772 6        40.500
C34  25123403.894 6 132024438.452 6        41.400    25123424.196 7  98589743.171 7        42.300    25123408.287 6 130824211.658 6        40.700                                                    25123410.869 6 106305368.559 6        41.700    25123420.551 6 101161627.039 6        39.400
J04  35789876.226 7 188077070.500 7        45.300    35789877.217 7 188077034.489 7        46.900    35789874.410 7 188077070.896 7        45.900    35789898.245 7 146553594.932 7        47.300    35789898.083 8 140447191.753 8        49.100
J07  36388520.698 6 191222966.710 6        38.900    36388522.637 7 191222963.724 7        42.400    36388516.787 7 191222976.456 7        45.500    36388542.927 8 149004953.630 8        49.300    36388541.960 8 142796410.199 8        49.900
R13
G26  20315952.994 8 106761063.375 8        48.600                                                                                                    20315973.798 7  83190464.839 7        47.700    20315968.681 8  79724202.704 8        51.400
J02  38513972.760 7 202392294.857 7        45.800    38513974.996 8 202392071.857 8        48.400    38513971.461 7 202392302.116 7        46.400    38513992.317 8 157708322.982 8        48.900    38513990.122 8 151137137.806 8        49.100
R08  21241304.468 7 113746208.921 7        47.200    21241301.919 7 113746165.943 7        45.700    21241320.914 7  88469290.105 7        46.600    21241320.295 7  88469254.110 7        45.000
I10  36172924.714 8 141950331.937 8        48.100
G28  22289406.771 6 117131619.911 6        41.700    22289407.591 7 117131580.908 7        44.900                                                    22289425.203 7  91271402.192 7        47.600    22289425.597 7  87468412.582 7        47.900
I09  38391522.661 7 150656580.517 7        44.700
G32  22384464.592 7 117631157.264 7        43.800                                                                                                    22384493.493 7  91660647.792 7        44.900    22384490.658 7  87841424.310 7        47.100
C03                                                                                                  36032494.250 6 187630670.331 6        40.800    36032495.717 7 145087932.805 7        44.800    36032488.851 7 152465256.104 7        43.900
C59                                                                                                  36936762.526 7 192339419.202 7        42.000                                                    36936746.408 7 156291469.193 7        44.700    36936756.083 7 148729011.979 7        44.700
C32  23244461.212 8 122150416.018 8        48.000    23244475.684 8  91216427.015 8        48.500    23244463.974 7 121040022.111 7        46.700                                                    23244462.741 7  98354906.767 7        46.200    23244471.857 7  93595851.407 7        43.900
I03  35696297.486 7 140079939.473 7        47.900
C11                                                                                                  24811086.735 6 129197827.851 6        40.800    24811101.497 7  99904046.904 7        44.600    24811087.710 7 104983848.646 7        42.700
C60                                                                                                  37414191.294 6 194825514.821 6        41.500                                                    37414175.676 7 158311627.743 7        44.200    37414187.135 7 150651435.753 7        44.900
R02  21768055.803 7 116158535.480 7        45.200    21768054.692 7 116158541.479 7        44.500    21768069.326 7  90345551.300 7        43.300    21768069.747 7  90345509.303 7        43.400
G16  20287587.116 7 106612003.823 7        45.800                                                    20287608.101 6  83074372.129 6        38.500
R01  19152113.647 7 102379030.639 7        46.200    19152111.177 7 102378983.649 7        44.500    19152126.840 7  79628141.721 7        43.400    19152126.849 7  79628110.734 7        42.600
G27  22812069.608 6 119878261.667 6        41.400                                                                                                    22812098.269 7  93411647.331 7        42.700    22812097.245 7  89519496.859 7        47.500
G31  21229870.451 7 111563730.958 7        46.600                                                                                                    21229886.046 7  86932796.376 7        45.000
E07  25929388.189 7 136259842.419 7        44.700    25929412.121 7 101752460.085 7        45.600    25929408.580 7 104406810.800 7        46.900    25929412.921 8 103079674.734 8        48.400    25929394.918 7 110600445.807 7        47.200
E27  25096348.786 7 131882205.835 7        46.400    25096359.962 7  98483473.688 7        46.900    25096357.775 8 101052615.149 8        49.100    25096360.679 8  99767988.213 8        49.500    25096348.505 8 107047171.218 8        48.700
E21  23544399.500 8 123726662.627 8        50.500    23544413.942 8  92393493.372 8        50.000    23544410.401 8  94803752.810 8        50.400    23544414.293 8  93598394.884 8        51.300    23544401.325 8 100427428.670 8        52.600
E29  23166151.749 8 121738948.371 8        50.100    23166163.269 8  90908950.770 8        49.400    23166160.044 8  93280696.368 8        50.100    23166163.573 8  92094661.365 8        51.300    23166151.902 8  98813989.684 8        51.900
E19  24407133.153 7 128260362.311 7        44.000    24407144.427 7  95778814.091 7        42.400    24407142.356 7  98277409.995 7        45.100    24407145.088 7  97028080.843 7        46.200    24407132.060 7 104107359.567 7        43.900
> 2024 10 17  8 49 30.0000000  0 45       -.000405554000
C33
C41  22442968.683 8 117938544.432 8        48.800    22442991.162 8  88071108.587 8        50.000    22442971.912 8 116866435.294 8        48.200                                                    22442975.217 7  94963524.479 7        46.000    22442987.898 7  90368607.374 7        45.800
C40  36946360.754 7 194154618.401 7        47.100    36946371.745 7 144985646.843 7        46.200    36946365.044 7 192389421.949 7        46.900                                                    36946361.070 7 156332143.645 7        44.500    36946369.328 7 148767733.714 7        43.100
C39  36686571.082 7 192789256.192 7        46.700    36686575.110 8 143966054.709 8        48.100    36686574.584 7 191036622.693 7        46.100                                                    36686564.674 7 155232876.600 7        45.000    36686573.095 7 147721628.917 7        44.900
C25  23764969.512 7 124885708.882 7        44.500    23764975.738 7  93258672.978 7        46.000    23764974.422 7 123750446.642 7        44.100                                                    23764967.098 7 100557352.331 7        44.100    23764973.548 7  95691694.523 7        42.800
C23  22704005.506 7 119310319.313 7        47.900    22704008.589 8  89095411.780 8        49.600    22704010.126 7 118225747.596 7        47.900                                                    22703996.719 7  96068078.221 7        45.800    22704005.327 7  91419632.130 7        45.500
C16                                                                                                  36907287.357 7 192185932.022 7        46.300    36907288.710 7 148610308.653 7        45.200    36907278.753 6 156166788.313 6        41.100
C13                                                                                                  38677766.171 6 201405271.721 6        39.800    38677782.300 6 155739284.827 6        40.800    38677769.454 6 163658255.040 6        40.300
C04                                                                                                  38474181.399 6 200345159.789 6        36.600    38474187.113 7 154919616.169 7        42.000    38474179.066 6 162796847.396 6        40.600
G03  22732134.844 6 119458165.151 6        38.500                                                                                                    22732168.849 7  93084299.815 7        42.300    22732168.650 8  89205820.909 8        48.200
C02                                                                                                  36862873.959 6 191954662.489 6        36.900    36862877.773 7 148431540.459 7        45.800    36862870.906 6 155978877.239 6        41.700
C01                                                                                                  37312318.794 6 194295032.649 6        39.200    37312324.003 7 150241272.926 7        44.000    37312316.579 6 157880625.465 6        41.000
C06                                                                                                  36772063.942 7 191481782.111 7        43.500    36772060.366 7 148065813.960 7        44.500    36772052.498 7 155594607.329 7        42.600
R12  20656188.827 8 110341677.902 8        50.100    20656187.739 8 110341639.915 8        49.600    20656203.352 7  85821322.604 7        46.500    20656203.290 7  85821290.602 7        45.900
R11  21520883.975 7 115001067.920 7        46.700    21520881.036 7 115001015.937 7        45.400    21520889.899 7  89445249.017 7        45.400    21520890.794 7  89445263.028 7        45.400
R21  23374185.833 7 125079983.641 7        43.700    23374183.145 7 125079972.643 7        42.400    23374214.837 7  97284624.853 7        43.300    23374213.748 6  97284565.853 6        41.700    23374202.920 6  93719387.938 6        40.900
I02  39895225.458 6 156557429.480 6        38.600
C43  24292122.867 7 127655925.888 7        42.300    24292146.489 7  95327456.388 7        45.300    24292127.034 7 126495481.971 7        42.600                                                    24292130.204 7 102787918.996 7        43.100    24292140.891 6  97814397.555 6        39.600
C34  25121804.826 6 132016028.189 6        41.100    25121824.056 7  98583463.207 7        43.100    25121807.508 6 130815877.854 6        41.100                                                    25121810.082 6 106298596.989 6        41.800    25121819.687 6 101155183.193 6        39.400
J04  35787474.519 7 188064457.412 7        45.000    35787476.348 7 188064421.411 7        46.900    35787474.094 7 188064457.805 7        45.400    35787498.230 7 146543766.568 7        46.700    35787497.842 8 140437772.907 8        48.900
J07  36387899.068 6 191219700.683 6        40.200    36387900.798 7 191219697.699 7        42.500    36387894.962 7 191219710.428 7        45.800    36387921.502 8 149002408.708 8        49.400    36387920.360 8 142793971.336 8        50.500
R13
G26  20322831.509 8 106797209.842 8        49.000                                                                                                    20322851.691 7  83218630.995 7        47.400    20322847.156 8  79751195.288 8        51.600
J02  38518033.152 7 202413633.595 7        45.300    38518035.334 8 202413410.596 8        48.200    38518031.760 7 202413640.853 7        46.400    38518053.209 8 157724950.600 8        48.900    38518050.612 8 151153072.624 8        49.000
R08  21261919.290 7 113856604.542 7        46.600    21261917.437 7 113856561.566 7        44.600    21261936.704 7  88555153.198 7        45.600    21261936.385 7  88555117.217 7        45.600
I10  36171991.836 8 141946671.338 8        48.800
G28  22294000.697 7 117155770.762 7        42.500    22294002.697 7 117155731.759 7        45.300                                                    22294020.707 7  91290220.942 7        47.500    22294021.657 8  87486447.190 8        48.100
I09  38391324.845 7 150655807.677 7        44.100
G32  22399311.533 7 117709179.451 7        44.100                                                                                                    22399340.899 7  91721444.125 7        45.200    22399337.875 7  87899687.425 7        47.300
C03                                                                                                  36031991.772 6 187628055.224 6        40.500    36031993.200 7 145085910.698 7        45.300    36031986.550 7 152463131.165 7        43.600
C59                                                                                                  36936380.896 7 192337432.765 7        42.000                                                    36936364.974 7 156289855.088 7        44.700    36936374.535 7 148727475.990 7        44.700
C32  23236459.816 8 122108368.889 8        48.000    23236474.856 8  91185028.146 8        49.000    23236462.711 7 120998357.230 7        47.500                                                    23236461.466 7  98321050.620 7        45.800    23236470.607 7  93563633.439 7        43.900
I03  35686054.615 8 140039744.856 8        48.000
C11                                                                                                  24803245.015 6 129157003.923 6        40.200    24803260.136 7  99872479.536 7        43.900    24803247.762 7 104950676.087 7        42.900
C60                                                                                                  37413797.582 6 194823463.803 6        41.600                                                    37413781.692 7 158309961.163 7        43.900    37413793.227 7 150649849.837 7        44.800
R02  21747433.780 7 116048485.577 7        46.700    21747431.726 7 116048491.585 7        44.400    21747445.361 7  90259957.040 7        43.000    21747446.484 7  90259915.041 7        43.800
G16  20281655.602 7 106580831.211 7        46.500                                                    20281675.726 6  83050081.966 6        38.700
R01  19151280.005 7 102374571.505 7        46.000    19151276.981 7 102374524.516 7        44.400    19151292.038 7  79624673.454 7        43.400    19151292.905 7  79624642.467 7        42.700
G27  22791072.351 6 119767920.133 6        41.800                                                                                                    22791100.691 6  93325667.200 6        41.300    22791099.397 7  89437099.277 7        47.600
G31  21229877.164 7 111563770.215 7        46.600                                                                                                    21229894.070 7  86932826.993 7        45.200
E07  25941084.664 7 136321310.767 7        44.500    25941109.501 7 101798361.706 7        45.500    25941104.982 7 104453909.851 7        46.300    25941110.036 8 103126175.074 8        48.300    25941091.009 7 110650338.907 7        46.100
E27  25107712.241 7 131941921.728 7        46.600    25107723.320 7  98528066.715 7        46.400    25107721.126 8 101098371.475 8        49.200    25107724.203 8  99813162.891 8        49.800    25107711.898 8 107095641.914 8        48.700
E21  23544040.169 8 123724774.373 8        49.800    23544054.585 8  92392083.423 8        50.000    23544050.808 8  94802306.073 8        50.200    23544054.850 8  93596966.544 8        52.400    23544041.804 8 100425896.082 8        52.500
E29  23165430.149 8 121735154.899 8        49.600    23165441.137 8  90906117.918 8        49.100    23165438.421 8  93277789.622 8        50.700    23165441.746 8  92091791.564 8        52.000    23165430.004 8  98810910.531 8        51.700
E19  24394919.439 7 128196177.991 7        44.400    24394930.379 7  95730884.278 7        42.500    24394928.258 7  98228229.830 7        45.500    24394931.176 7  96979525.840 7        46.200    24394918.008 7 104055261.927 7        43.600
> 2024 10 17  8 50  0.0000000  0 45       -.000407673000
C41  22452754.487 8 117989969.346 8        48.900    22452777.566 8  88109510.238 8        50.300    22452757.709 8 116917392.714 8        48.200                                                    22452761.409 7  95004931.503 7        46.300    22452773.826 7  90408010.812 7        45.800
C40  36938344.090 7 194112491.406 7        47.000    36938355.302 7 144954188.534 7        47.000    36938348.242 7 192347677.946 7        45.900                                                    36938344.241 7 156298223.338 7        45.400    36938352.747 7 148735454.739 7        43.000
C39  36683335.749 7 192772250.254 7        46.900    36683339.124 8 143953355.480 8        48.800    36683338.329 7 191019771.359 7        45.500                                                    36683328.683 7 155219183.533 7        45.600    36683336.908 7 147708598.414 7        45.100
C25  23773591.186 7 124931020.354 7        43.500    23773598.509 7  93292509.417 7        46.100    23773597.363 7 123795346.238 7        44.700                                                    23773588.753 7 100593836.877 7        44.300    23773596.073 7  95726413.668 7        42.600
C23  22704656.019 7 119313738.852 7        47.900    22704659.203 8  89097965.451 8        49.600    22704660.337 7 118229136.060 7        47.700                                                    22704647.276 7  96070831.700 7        46.600    22704655.874 7  91422252.398 7        45.500
C16                                                                                                  36904293.778 7 192170342.612 7        45.700    36904295.230 7 148598253.984 7        44.900    36904284.973 6 156154120.685 6        41.600
C13                                                                                                  38688041.932 6 201458780.549 6        40.200    38688058.465 6 155780661.207 6        41.100    38688045.208 6 163701735.315 6        41.100
C04                                                                                                  38473710.305 6 200342709.773 6        36.800    38473716.951 7 154917721.729 7        42.900    38473708.214 6 162794856.623 6        39.900
G03  22732092.650 6 119457942.929 6        38.300                                                                                                    22732126.488 7  93084126.480 7        42.600    22732126.522 8  89205654.760 8        48.800
C02                                                                                                  36862492.232 6 191952676.038 6        36.900    36862496.403 7 148430004.464 7        45.800    36862489.378 6 155977263.134 6        41.400
C01                                                                                                  37311838.212 6 194292533.265 6        39.200    37311843.965 7 150239340.298 7        43.900    37311836.563 6 157878594.558 6        41.600
C06                                                                                                  36769471.690 7 191468283.006 7        44.600    36769468.326 7 148055375.630 7        45.100    36769460.082 7 155583638.232 7        43.400
R12  20655677.422 8 110338946.073 8        50.700    20655676.105 8 110338908.071 8        49.700    20655692.282 8  85819198.101 8        48.700    20655692.472 7  85819166.106 7        47.500
R11  21533043.921 7 115066065.811 7        45.600    21533044.098 7 115066013.819 7        44.900    21533055.281 7  89495802.957 7        46.400    21533054.436 7  89495816.947 7        45.300
R21  23363036.588 7 125020328.763 7        43.100    23363034.086 7 125020317.758 7        42.500    23363061.575 6  97238227.158 6        39.400    23363064.350 6  97238168.181 6        40.400    23363055.285 6  93674690.603 6        40.200
I02  39892156.309 6 156545380.206 6        40.900
C43  24281078.528 7 127597886.509 7        43.100    24281101.353 7  95284115.479 7        45.300    24281082.272 7 126437970.217 7        43.200                                                    24281085.585 7 102741186.126 7        43.300    24281096.721 6  97769926.002 6        40.500
C34  25120281.293 6 132008020.164 6        41.200    25120299.103 7  98577483.622 7        42.600    25120282.345 6 130807942.687 6        40.100                                                    25120286.034 6 106292149.299 6        41.500    25120295.723 6 101149047.577 6        39.500
J04  35785095.649 7 188051953.368 7        44.300    35785097.511 7 188051917.375 7        46.900    35785094.903 7 188051953.761 7        45.700    35785118.806 7 146534023.160 7        47.100    35785118.695 8 140428435.488 8        49.100
J07  36387281.681 6 191216458.304 6        39.200    36387284.001 7 191216455.305 7        42.600    36387278.019 7 191216468.045 7        46.000    36387304.183 8 148999882.235 8        49.200    36387303.394 8 142791550.137 8        49.800
R13
G26  20329774.934 8 106833700.213 8        48.700                                                                                                    20329795.127 7  83247065.126 7        46.400    20329790.694 8  79778444.665 8        50.500
J02  38522096.296 7 202434988.022 7        45.300    38522098.759 8 202434765.024 8        48.400    38522095.371 7 202434995.274 7        46.700    38522116.313 8 157741590.474 8        48.800    38522114.226 8 151169019.177 8        49.100
R08  21282611.826 7 113967417.066 7        46.900    21282611.332 7 113967374.091 7        44.900    21282630.161 7  88641340.555 7        46.200    21282629.794 7  88641304.566 7        45.200
I10  36171063.966 8 141943030.604 8        48.300
G28  22298617.521 7 117180025.769 7        42.900    22298619.261 7 117179986.754 7        45.400                                                    22298636.350 7  91309120.844 7        47.000    22298637.468 8  87504559.551 8        48.900
I09  38391143.702 7 150655095.821 7        44.400
G32  22414231.030 7 117787583.253 7        42.900                                                                                                    22414261.754 7  91782537.862 7        45.300    22414257.669 7  87958235.566 7        46.500
C03                                                                                                  36031493.428 6 187625462.207 6        40.500    36031495.352 7 145083905.665 7        45.100    36031488.569 7 152461024.181 7        43.800
C59                                                                                                  36936003.839 7 192335469.086 7        42.000                                                    36935987.575 7 156288259.481 7        44.500    36935997.465 7 148725957.593 7        44.800
C32  23228550.127 7 122066803.360 7        47.800    23228565.176 8  91153988.923 8        49.200    23228552.985 7 120957169.579 7        47.000                                                    23228552.008 7  98287582.257 7        46.000    23228560.792 7  93531784.487 7        43.800
G29
I03  35675817.065 8 139999570.573 8        48.300
C11                                                                                                  24795459.315 6 129116465.770 6        38.700    24795474.373 7  99841133.145 7        44.300    24795462.165 7 104917735.722 7        42.700
C60                                                                                                  37413407.894 6 194821435.531 6        41.700                                                    37413392.179 7 158308313.075 7        45.100    37413403.710 7 150648281.506 7        44.900
R02  21726889.034 7 115938861.091 7        46.000    21726887.805 7 115938867.119 7        44.700    21726902.687 7  90174693.650 7        44.400    21726902.785 7  90174651.616 7        44.000
G16  20275823.413 7 106550185.603 7        46.400                                                    20275843.811 6  83026202.464 6        38.400
R01  19150601.156 7 102370948.012 7        45.600    19150598.854 7 102370901.004 7        44.200    19150614.866 7  79621855.106 7        43.800    19150615.303 7  79621824.120 7        42.800
G27  22770099.021 6 119657705.364 6        41.900                                                                                                    22770127.998 7  93239785.802 7        42.400    22770125.738 7  89354796.344 7        46.400
G31  21229903.073 7 111563908.423 7        45.400                                                                                                    21229919.532 7  86932934.744 7        43.800
E07  25952829.796 7 136383030.825 7        44.800    25952853.748 7 101844451.292 7        44.200    25952850.274 7 104501201.764 7        47.000    25952854.772 7 103172865.813 7        47.800    25952836.246 7 110700436.307 7        46.400
E27  25119096.062 7 132001743.043 7        46.800    25119106.862 7  98572738.485 7        46.700    25119104.669 8 101144208.597 8        48.700    25119107.769 8  99858417.340 8        50.100    25119095.636 8 107144198.188 8        48.600
E21  23543739.702 8 123723195.078 8        50.100    23543754.065 8  92390904.210 8        49.800    23543750.179 8  94801096.068 8        50.700    23543754.186 8  93595771.939 8        52.400    23543740.873 8 100424614.275 8        52.200
E29  23164775.964 8 121731717.013 8        50.700    23164786.609 8  90903550.607 8        49.100    23164784.241 8  93275155.354 8        50.200    23164787.620 8  92089190.778 8        51.700    23164775.522 8  98808120.000 8        51.600
E19  24382740.898 7 128132180.228 7        43.800    24382752.178 7  95683093.817 7        43.000    24382749.758 7  98179192.654 7        45.100    24382752.850 7  96931112.028 7        46.600    24382739.848 7 104003315.719 7        43.800
> 2024 10 17  8 50 30.0000000  0 45       -.000409775000
C41  22462621.783 8 118041822.499 8        48.700    22462644.754 8  88148231.662 8        50.500    22462624.755 7 116968774.474 7        47.900                                                    22462628.940 7  95046683.332 7        46.500    22462641.060 7  90447742.386 7        45.500
C40  36930354.353 7 194070506.451 7        46.900    36930365.963 7 144922836.285 7        46.800    36930358.309 7 192306074.665 7        46.600                                                    36930355.012 7 156264417.371 7        45.400    36930363.184 7 148703284.582 7        43.000
C39  36680093.479 7 192755214.188 7        46.800    36680097.221 8 143940633.772 8        48.100    36680096.894 7 191002890.159 7        46.800                                                    36680086.745 7 155205466.196 7        45.100    36680095.011 7 147695544.828 7        44.700
C25  23782210.962 7 124976314.422 7        44.200    23782217.689 7  93326332.840 7        45.900    23782216.671 7 123840228.546 7        43.900                                                    23782208.065 7 100630307.382 7        44.000    23782215.145 7  95761119.445 7        42.800
C23  22705327.282 7 119317266.160 7        47.900    22705330.132 8  89100599.578 8        50.200    22705331.861 8 118232631.276 8        48.100                                                    22705318.032 7  96073671.939 7        45.700    22705327.184 7  91424955.231 7        45.800
C16                                                                                                  36901289.561 7 192154702.814 7        45.000    36901291.687 7 148586160.339 7        44.600    36901281.372 6 156141412.095 6        41.200
C13                                                                                                  38698321.450 6 201512310.238 6        39.700    38698338.726 6 155822053.731 6        41.900    38698325.040 6 163745232.549 6        40.700
C04                                                                                                  38473244.725 6 200340285.454 6        36.900    38473250.919 7 154915847.161 7        42.300    38473242.748 6 162792886.719 6        40.100
G03  22732153.086 6 119458257.564 6        40.200                                                                                                    22732186.297 7  93084371.486 7        43.900    22732186.590 8  89205889.532 8        49.800
C02                                                                                                  36862116.548 6 191950718.573 6        37.100    36862120.132 7 148428490.888 7        46.200    36862113.441 6 155975672.587 6        41.300
C01                                                                                                  37311363.841 6 194290060.653 6        39.400    37311369.454 7 150237428.381 7        44.100    37311361.649 6 157876585.404 6        41.100
C06                                                                                                  36766869.828 7 191454732.964 7        44.000    36766866.451 7 148044897.918 7        44.500    36766857.924 7 155572627.751 7        42.900
R12  20655221.310 8 110336509.102 8        50.400    20655219.721 8 110336471.106 8        49.400    20655235.800 7  85817302.927 7        47.000    20655235.466 7  85817270.933 7        46.200
R11  21545207.666 7 115131055.034 7        46.900    21545206.447 7 115131003.053 7        45.300    21545216.942 7  89546350.073 7        46.800    21545216.562 7  89546364.078 7        46.100
R21  23351963.025 7 124961059.807 7        43.000    23351958.899 6 124961048.809 6        41.700    23351986.513 6  97192129.607 6        39.500    23351986.840 6  97192070.619 6        39.500    23351979.735 6  93630282.451 6        41.300
I02  39889094.374 6 156533365.376 6        40.300
C43  24270070.930 6 127540045.627 6        41.500    24270094.698 7  95240922.784 7        45.500    24270076.650 7 126380655.154 7        43.700                                                    24270079.254 7 102694613.086 7        43.600    24270089.338 6  97725606.534 6        40.200
C34  25118834.891 6 132000420.300 6        40.700    25118853.391 7  98571808.775 7        43.200    25118837.322 6 130800411.845 6        40.400                                                    25118839.772 6 106286030.189 6        41.700    25118849.870 6 101143224.625 6        39.600
J04  35782737.407 7 188039563.106 7        44.300    35782739.563 7 188039527.096 7        47.200    35782736.607 7 188039563.498 7        45.800    35782760.863 7 146524368.417 7        46.500    35782760.943 8 140419183.013 8        48.800
J07  36386670.241 6 191213244.302 6        37.700    36386672.207 7 191213241.287 7        42.200    36386666.493 7 191213254.043 7        45.500    36386692.688 8 148997377.848 8        49.600    36386691.683 8 142789150.109 8        50.300
R13
G26  20336784.932 8 106870537.094 8        48.500                                                                                                    20336804.333 7  83275769.243 7        46.300    20336800.607 8  79805952.792 8        51.500
J02  38526165.007 7 202456362.635 7        45.700    38526166.642 8 202456139.637 8        48.400    38526163.263 7 202456369.894 7        46.600    38526183.637 8 157758246.061 8        48.700    38526181.487 8 151184980.779 8        48.900
R08  21303384.269 7 114078647.576 7        45.400    21303382.075 7 114078604.577 7        44.100    21303401.828 7  88727853.002 7        45.200    21303401.281 7  88727817.013 7        45.000
I10  36170141.539 7 141939413.226 7        47.900
G28  22303255.025 7 117204390.476 7        43.400    22303256.494 7 117204351.474 7        45.900                                                    22303272.762 7  91328106.207 7        47.200    22303274.132 8  87522753.839 8        49.000
I09  38390978.829 6 150654448.546 6        41.300
G32  22429224.986 7 117866371.725 7        43.800                                                                                                    22429252.767 7  91843931.360 7        44.100    22429250.926 7  88017070.944 7        47.300
C03                                                                                                  36031001.511 6 187622895.948 6        40.800    36031002.645 7 145081921.326 7        45.100    36030995.742 7 152458938.932 7        43.800
C59                                                                                                  36935631.748 6 192333532.854 6        41.800                                                    36935615.776 7 156286686.178 7        43.900    36935625.639 7 148724460.436 7        44.600
C32  23220733.306 7 122025725.316 7        47.300    23220748.526 8  91123313.699 8        49.100    23220736.324 7 120916464.954 7        46.800                                                    23220735.296 7  98254506.365 7        46.000    23220744.143 7  93500309.043 7        44.100
G29
I03  35665585.209 8 139959420.106 8        48.000
C11                                                                                                  24787730.046 6 129076220.163 6        38.700    24787746.050 7  99810013.005 7        43.700    24787733.689 7 104885033.117 7        42.800
C60                                                                                                  37413023.710 6 194819434.660 6        41.600                                                    37413007.804 7 158306687.253 7        45.000    37413019.368 7 150646734.361 7        44.800
R02  21706426.763 7 115829670.739 7        44.500    21706425.465 7 115829676.739 7        43.800    21706440.886 7  90089767.864 7        43.000    21706440.695 7  90089725.859 7        42.700
G16  20270092.579 7 106520071.504 7        46.100                                                    20270113.322 6  83002737.133 6        38.300
R01  19150081.864 7 102368165.290 7        45.700    19150078.356 7 102368118.309 7        44.500    19150094.160 7  79619690.706 7        43.900    19150094.825 7  79619659.720 7        43.000
G27  22749150.937 7 119547625.229 7        42.000                                                                                                    22749179.840 6  93154009.313 6        41.900    22749177.695 7  89272593.929 7        45.900
G31  21229948.896 7 111564150.618 7        44.600                                                                                                    21229965.857 7  86933123.509 7        44.600
E07  25964623.981 7 136445006.524 7        44.400    25964648.207 7 101890731.785 7        45.100    25964642.830 7 104548689.589 7        46.000    25964648.335 8 103219749.979 8        48.000    25964629.923 7 110750741.224 7        46.300
E27  25130500.048 7 132061672.953 7        46.000    25130511.263 7  98617491.345 7        46.400    25130509.043 8 101190128.910 8        48.500    25130512.043 8  99903753.923 8        49.800    25130500.178 8 107192842.601 8        49.100
E21  23543498.852 8 123721928.459 8        50.900    23543513.113 8  92389958.480 8        50.000    23543509.022 8  94800125.658 8        50.600    23543513.061 8  93594813.867 8        52.600    23543499.871 8 100423586.263 8        52.300
E29  23164190.450 8 121728640.242 8        50.000    23164201.309 8  90901252.966 8        49.300    23164198.816 8  93272797.776 8        50.500    23164202.241 8  92086863.167 8        52.200    23164190.169 8  98805622.574 8        51.300
E19  24370599.382 7 128068375.475 7        43.800    24370610.760 7  95635447.426 7        43.000    24370607.729 7  98130303.338 7        45.100    24370611.249 7  96882844.182 7        46.600    24370598.019 7 103951526.174 7        44.200
> 2024 10 17  8 51  0.0000000  0 45       -.000411860000
C41  22472570.083 8 118094102.359 8        48.500    22472593.544 8  88187271.748 8        50.700    22472573.397 8 117020579.056 8        48.100                                                    22472577.383 7  95088778.746 7        46.100    22472589.695 7  90487800.916 7        45.400
C40  36922391.678 7 194028664.241 7        47.000    36922403.770 7 144891590.622 7        46.900    36922396.198 7 192264612.851 7        46.800                                                    36922392.083 7 156230726.355 7        45.000    36922400.934 7 148671223.805 7        43.300
C39  36676846.039 7 192738148.649 7        47.000    36676849.860 8 143927890.063 8        48.400    36676849.346 7 190985979.772 7        45.500                                                    36676839.167 7 155191725.128 7        45.300    36676847.450 7 147682468.655 7        44.700
C25  23790826.210 7 125021591.058 7        43.800    23790833.853 7  93360143.262 7        46.200    23790831.339 7 123885093.605 7        43.400                                                    23790824.136 7 100666763.873 7        43.500    23790831.601 7  95795811.890 7        43.200
C23  22706018.492 7 119320900.501 7        47.600    22706021.864 8  89103313.654 8        49.500    22706023.147 7 118236232.608 7        47.300                                                    22706009.265 7  96076598.390 7        45.200    22706018.725 7  91427740.099 7        45.500
C16                                                                                                  36898276.510 7 192139013.227 7        45.600    36898278.913 7 148574028.206 7        45.500    36898268.511 6 156128663.065 6        41.300
C13                                                                                                  38708604.660 6 201565860.379 6        39.400    38708622.059 6 155863462.059 6        41.300    38708608.712 6 163788746.396 6        39.500
C04                                                                                                  38472784.535 6 200337887.212 6        36.300    38472790.245 7 154913992.754 7        42.400    38472782.025 6 162790938.011 6        39.900
G03  22732315.230 6 119459108.161 6        41.800                                                                                                    22732348.490 7  93085034.133 7        44.600    22732348.788 8  89206524.528 8        50.200
C02                                                                                                  36861746.172 6 191948790.498 6        36.900    36861750.001 7 148427000.050 7        45.800    36861743.056 6 155974105.929 6        41.700
C01                                                                                                  37310893.950 6 194287615.147 6        39.200    37310899.482 7 150235537.410 7        44.200    37310892.011 6 157874598.278 6        40.900
C06                                                                                                  36764257.457 7 191441132.471 7        43.900    36764254.356 7 148034381.194 7        44.700    36764245.982 7 155561576.267 7        42.400
R12  20654818.736 8 110334365.049 8        50.100    20654817.764 8 110334327.054 8        49.500    20654834.094 7  85815635.563 7        47.800    20654834.339 7  85815603.568 7        47.400
R11  21557367.664 7 115196034.082 7        46.600    21557366.988 7 115195982.085 7        45.700    21557376.478 7  89596889.329 7        46.300    21557376.637 7  89596903.334 7        46.200
R21  23340957.358 7 124902180.681 7        43.900    23340954.905 7 124902169.689 7        42.600    23340984.065 6  97146335.349 6        41.300    23340984.812 6  97146276.355 6        40.900    23340976.579 6  93586166.508 6        40.800
I02  39886041.717 6 156521386.031 6        39.900
C43  24259101.776 7 127482405.986 7        42.200    24259125.673 7  95197880.428 7        45.800    24259106.973 7 126323539.552 7        43.400                                                    24259110.294 7 102648202.107 7        43.000    24259120.572 6  97681441.308 6        40.500
C34  25117465.596 6 131993229.819 6        41.600    25117483.338 7  98566439.687 7        42.600    25117467.257 6 130793286.792 6        40.400                                                    25117471.201 7 106280240.803 7        42.000    25117480.790 6 101137715.462 6        39.500
J04  35780401.240 7 188027286.875 7        43.700    35780403.553 7 188027250.869 7        47.200    35780400.893 7 188027287.267 7        45.200    35780424.757 7 146514802.552 7        46.400    35780424.608 8 140410015.714 8        49.300
J07  36386065.198 6 191210058.909 6        38.700    36386066.144 7 191210055.912 7        42.600    36386060.528 7 191210068.649 7        45.400    36386086.358 8 148994895.797 8        49.300    36386085.363 8 142786771.484 8        49.600
R13
G26  20343860.143 8 106907718.527 8        48.600                                                                                                    20343880.466 7  83304741.850 7        46.100    20343875.996 8  79833718.232 8        51.400
J02  38530235.300 7 202477757.304 7        45.000    38530237.076 8 202477534.306 8        48.000    38530233.979 7 202477764.563 7        46.600    38530254.894 8 157774917.309 8        48.400    38530252.847 8 151200957.395 8        48.900
R08  21324235.351 7 114190292.255 7        46.700    21324231.912 7 114190249.278 7        44.900    21324251.093 7  88814687.566 7        45.600    21324250.359 7  88814651.578 7        45.100
I10  36169226.000 8 141935819.472 8        48.600
G28  22307912.547 7 117228866.041 7        44.300    22307913.938 7 117228827.037 7        45.900                                                    22307930.708 7  91347177.959 7        46.700    22307932.061 8  87541030.927 8        48.900
I09  38390830.878 7 150653866.085 7        42.800
G32  22444292.335 7 117945543.545 7        44.700                                                                                                    22444319.531 7  91905623.531 7        44.600    22444317.042 7  88076192.578 7        47.100
C03                                                                                                  36030513.653 6 187620356.763 6        40.600    36030514.920 7 145079957.931 7        45.600    36030507.975 7 152456875.659 7        43.200
C59                                                                                                  36935265.147 6 192331624.314 6        41.800                                                    36935249.271 7 156285135.374 7        44.600    36935259.044 7 148722984.686 7        44.500
C32  23213009.652 7 121985136.133 7        47.500    23213024.392 8  91093003.548 8        49.000    23213012.404 7 120876244.762 7        47.100                                                    23213011.192 7  98221824.145 7        45.900    23213020.122 7  93469208.211 7        44.100
G29
I03  35655360.245 7 139919293.618 7        47.600
C11                                                                                                  24780055.688 6 129036269.603 6        38.000    24780074.713 7  99779121.005 7        44.200    24780060.636 7 104852570.280 7        43.000
C60                                                                                                  37412644.605 6 194817461.456 6        41.600                                                    37412628.756 7 158305083.906 7        44.500    37412640.293 7 150645208.611 7        44.700
R02  21686046.421 7 115720919.080 7        43.900    21686045.648 7 115720925.087 7        43.300    21686061.271 7  90005183.308 7        43.500    21686060.678 7  90005141.286 7        43.000
G16  20264462.915 7 106490488.817 7        46.400                                                    20264483.252 6  82979685.882 6        38.200
R01  19149718.716 7 102366223.848 7        46.600    19149715.855 7 102366176.854 7        44.600    19149730.912 7  79618180.637 7        43.600    19149731.498 7  79618149.647 7        42.900
G27  22728229.307 7 119437683.208 7        42.000                                                                                                    22728258.252 7  93068340.445 7        42.300    22728256.246 7  89190494.649 7        45.700
G31  21230015.989 7 111564497.488 7        44.800                                                                                                    21230031.304 7  86933393.870 7        44.300
E07  25976465.975 7 136507237.362 7        43.400    25976489.985 7 101937202.816 7        44.700    25976485.840 7 104596372.896 7        46.400    25976490.545 8 103266827.158 8        48.300    25976472.394 7 110801253.236 7        46.800
E27  25141924.538 7 132121710.204 7        46.700    25141935.834 7  98662324.367 7        46.700    25141933.581 8 101236131.479 8        48.700    25141936.792 8  99949171.718 8        49.700    25141924.878 8 107241574.130 8        49.300
E21  23543316.970 8 123720973.773 8        50.300    23543331.203 8  92389245.700 8        50.100    23543327.290 8  94799394.277 8        50.400    23543331.330 8  93594091.787 8        52.000    23543318.333 8 100422811.453 8        52.600
E29  23163673.708 8 121725925.686 8        50.100    23163685.012 8  90899225.804 8        49.000    23163682.225 8  93270717.739 8        50.400    23163685.719 8  92084809.567 8        52.100    23163673.347 8  98803419.163 8        51.300
E19  24358494.610 7 128004765.413 7        43.800    24358506.393 7  95587946.462 7        43.300    24358503.309 7  98081563.194 7        45.100    24358506.603 7  96834723.618 7        46.700    24358493.881 7 103899894.672 7        44.500
> 2024 10 17  8 51 30.0000000  0 45       -.000413921000
C41  22482600.246 8 118146811.182 8        48.300    22482623.857 8  88226632.146 8        50.700    22482603.354 7 117072808.688 7        47.700                                                    22482607.569 7  95131219.550 7        46.500    22482620.013 7  90528188.126 7        45.600
C40  36914457.435 7 193986969.266 7        46.800    36914469.668 7 144860454.921 7        47.000    36914461.954 7 192223296.915 7        45.500                                                    36914457.920 7 156197153.885 7        45.200    36914466.599 7 148639275.843 7        43.500
C39  36673593.812 7 192721058.044 7        46.800    36673597.499 8 143915127.621 8        48.300    36673597.010 7 190969044.533 7        46.100                                                    36673586.915 7 155177963.885 7        44.700    36673595.051 7 147669373.283 7        44.600
C25  23799440.267 7 125066854.045 7        44.100    23799446.975 7  93393943.461 7        45.900    23799443.962 7 123929945.090 7        43.500                                                    23799437.617 7 100703209.303 7        43.400    23799444.781 7  95830493.817 7        43.200
C23  22706731.171 8 119324644.916 8        48.300    22706734.768 8  89106109.926 8        49.900    22706735.615 7 118239942.984 7        47.600                                                    22706722.061 7  96079613.471 7        45.300    22706731.375 7  91430609.298 7        45.800
C16                                                                                                  36895254.602 7 192123278.093 7        45.400    36895257.190 7 148561860.853 7        45.600    36895246.822 6 156115877.014 6        41.400
C13                                                                                                  38718893.314 6 201619434.191 6        40.300    38718910.122 7 155904888.706 7        42.100    38718896.817 6 163832279.496 6        39.900
C04                                                                                                  38472329.262 6 200335518.930 6        36.100    38472335.556 6 154912161.533 6        41.700    38472327.506 6 162789013.637 6        40.900
G03  22732579.569 7 119460497.558 7        43.300                                                                                                    22732612.355 7  93086116.631 7        44.500    22732613.270 8  89207561.891 8        49.500
C02                                                                                                  36861381.619 6 191946895.592 6        36.800    36861385.942 7 148425534.857 7        45.800    36861379.187 6 155972566.215 6        41.300
C01                                                                                                  37310429.784 6 194285200.757 6        39.000    37310435.784 7 150233670.512 7        44.200    37310428.222 6 157872636.431 6        41.300
C06                                                                                                  36761636.307 7 191427485.649 7        44.400    36761633.622 7 148023828.646 7        44.900    36761625.143 7 155550487.135 7        42.200
R12  20654472.810 8 110332515.674 8        50.400    20654472.026 8 110332477.680 8        49.200    20654487.312 7  85814197.400 7        46.700    20654487.518 7  85814165.405 7        46.800
R11  21569527.479 7 115261005.015 7        47.600    21569525.398 7 115260953.026 7        46.000    21569535.214 7  89647422.273 7        46.300    21569535.110 7  89647436.293 7        45.600
R21  23330025.446 7 124843699.625 7        42.200    23330024.344 6 124843688.624 6        41.600    23330056.074 7  97100850.694 7        43.100    23330056.374 7  97100791.725 7        42.400    23330047.599 6  93542348.756 6        41.400
I02  39883001.059 6 156509444.120 6        41.600
C43  24248172.457 7 127424974.120 7        43.000    24248196.409 7  95154993.183 7        45.800    24248177.728 7 126266629.774 7        44.000                                                    24248180.226 7 102601958.401 7        42.400    24248191.918 6  97637435.268 6        40.300
C34  25116175.102 6 131986453.892 6        41.100    25116192.854 7  98561380.183 7        42.400    25116181.080 7 130786572.450 7        42.600                                                    25116181.402 7 106274785.158 7        42.100    25116191.726 6 101132523.896 6        40.200
J04  35778088.111 7 188015128.713 7        44.700    35778089.995 7 188015092.716 7        47.200    35778087.428 7 188015129.104 7        45.800    35778111.139 7 146505328.672 7        46.800    35778111.053 8 140400936.580 8        48.800
J07  36385464.151 6 191206906.255 6        38.100    36385465.899 7 191206903.246 7        42.200    36385460.248 7 191206916.003 7        46.600    36385486.627 8 148992439.229 8        49.500    36385485.408 8 142784417.288 8        49.900
R13
G26  20351001.260 8 106945246.414 8        48.000                                                                                                    20351020.819 7  83333984.464 7        45.400    20351017.261 8  79861742.395 8        51.400
J02  38534311.497 7 202499175.852 7        45.100    38534313.545 8 202498952.847 8        48.400    38534309.660 7 202499183.110 7        46.800    38534330.612 8 157791607.108 8        48.300    38534328.541 8 151216951.816 8        48.900
R08  21345159.851 7 114302351.244 7        46.200    21345158.069 7 114302308.275 7        44.800    21345177.087 7  88901844.404 7        45.100    21345176.457 7  88901808.395 7        44.500
I10  36168316.972 7 141932252.374 7        47.900
G28  22312589.622 7 117253457.411 7        42.300    22312591.929 7 117253418.422 7        45.100                                                    22312611.126 8  91366339.968 8        48.000    22312611.907 8  87559394.483 8        49.100
I09  38390699.410 7 150653351.558 7        42.900
G32  22459429.695 7 118025101.086 7        43.200                                                                                                    22459457.697 7  91967616.267 7        43.700    22459456.249 7  88135602.264 7        46.200
C03                                                                                                  36030031.791 6 187617848.679 6        40.600    36030033.041 7 145078018.581 7        45.000    36030026.180 7 152454837.688 7        43.300
C59                                                                                                  36934905.106 6 192329747.531 6        41.800                                                    36934888.795 7 156283610.382 7        45.200    36934898.493 7 148721533.494 7        44.700
C32  23205379.082 7 121945040.992 7        46.500    23205394.295 8  91063062.330 8        49.500    23205383.148 7 120836514.130 7        47.300                                                    23205381.505 7  98189539.714 7        45.800    23205390.454 7  93438485.914 7        44.100
G29
I03  35645141.151 7 139879194.214 7        47.600
C11                                                                                                  24772443.165 6 128996620.291 6        39.800    24772459.364 7  99748461.962 7        43.200    24772445.484 7 104820352.212 7        42.300
C60                                                                                                  37412271.574 6 194815519.963 6        41.700                                                    37412255.910 7 158303506.338 7        44.300    37412267.466 7 150643707.394 7        44.900
R02  21665749.103 7 115612614.246 7        43.900    21665749.288 7 115612620.237 7        43.200    21665764.601 7  89920946.244 7        43.600    21665764.509 7  89920904.260 7        43.300
G16  20258935.161 7 106461441.137 7        47.100                                                    20258955.451 6  82957051.515 6        38.900
R01  19149514.042 7 102365128.537 7        45.800    19149510.861 7 102365081.548 7        44.700    19149525.613 7  79617328.664 7        43.400    19149526.575 7  79617297.679 7        42.800
G27  22707335.874 7 119327886.577 7        42.200                                                                                                    22707364.823 7  92982784.867 7        42.500    22707362.369 7  89108503.938 7        46.100
G31  21230103.557 7 111564953.679 7        46.500                                                                                                    21230119.075 7  86933749.376 7        44.700
E07  25988357.245 7 136569726.612 7        44.000    25988381.831 7 101983866.829 7        45.800    25988377.131 7 104644254.228 7        46.000    25988381.779 8 103314099.824 8        48.100    25988363.509 7 110851974.971 7        46.700
E27  25153370.667 7 132181857.311 7        46.200    25153381.740 7  98707239.394 7        46.800    25153379.107 8 101282218.219 8        48.500    25153382.433 8  99994672.597 8        49.600    25153370.458 8 107290394.825 8        49.000
E21  23543195.055 8 123720334.051 8        50.300    23543209.436 8  92388768.106 8        49.800    23543205.464 8  94798904.205 8        50.700    23543209.476 8  93593607.959 8        52.300    23543196.378 8 100422292.291 8        52.600
E29  23163227.140 8 121723578.176 8        50.200    23163238.438 8  90897472.737 8        49.800    23163235.473 8  93268918.951 8        50.400    23163239.021 8  92083033.640 8        52.000    23163226.855 8  98801513.674 8        51.300
E19  24346428.055 7 127941356.060 7        44.100    24346439.794 7  95540595.365 7        42.700    24346436.428 7  98032976.845 7        44.700    24346440.184 7  96786754.898 7        46.700    24346426.895 7 103848426.068 7        44.100
> 2024 10 17  8 52  0.0000000  0 44       -.000415970000
C41  22492710.072 8 118199938.672 8        48.300    22492733.575 8  88266305.189 8        51.100    22492713.920 8 117125453.193 8        48.400                                                    22492717.341 7  95173997.469 7        46.500    22492730.025 7  90568896.136 7        45.800
C40  36906549.651 7 193945413.583 7        46.800    36906561.526 7 144829423.235 7        47.000    36906553.676 7 192182119.036 7        46.200                                                    36906549.909 7 156163693.592 7        45.200    36906558.859 7 148607434.619 7        43.800
C39  36670335.426 7 192703934.367 7        46.700    36670338.984 7 143902340.478 7        47.800    36670338.516 7 190952076.534 7        45.400                                                    36670328.533 7 155164176.008 7        45.500    36670336.559 7 147656252.562 7        44.600
C25  23808050.598 7 125112094.662 7        44.600    23808056.264 7  93427726.997 7        45.500    23808053.092 7 123974774.436 7        42.700                                                    23808046.234 7 100739636.799 7        44.300    23808053.935 7  95865158.685 7        43.400
C23  22707462.742 7 119328490.005 7        47.900    22707466.335 8  89108981.364 8        50.200    22707467.312 8 118243753.119 8        48.200                                                    22707453.986 7  96082709.596 7        46.000    22707463.385 7  91433555.634 7        46.200
C16                                                                                                  36892222.722 7 192107489.365 7        44.900    36892225.359 7 148549652.043 7        45.200    36892214.645 7 156103047.409 7        42.200
C13                                                                                                  38729183.951 6 201673022.554 6        39.200    38729201.025 6 155946326.598 6        41.600    38729188.016 6 163875824.398 6        40.600
C04                                                                                                  38471879.039 6 200333172.424 6        36.600    38471884.588 7 154910347.120 7        42.400    38471876.709 6 162787106.957 6        40.400
G03  22732944.674 7 119462416.195 7        42.200                                                                                                    22732978.393 7  93087611.498 7        44.400    22732978.681 8  89208994.461 8        49.200
C02                                                                                                  36861022.545 6 191945025.637 6        37.500    36861027.134 7 148424088.955 7        45.500    36861019.945 6 155971046.771 6        41.100
C01                                                                                                  37309971.192 6 194282809.127 6        39.000    37309976.626 7 150231821.201 7        43.900    37309969.007 6 157870693.075 6        41.000
C06                                                                                                  36759005.195 7 191413784.393 7        43.800    36759002.511 7 148013234.003 7        44.700    36758993.978 7 155539353.778 7        42.900
R12  20654179.617 8 110330950.159 8        49.100    20654178.761 8 110330912.157 8        48.800    20654194.362 8  85812980.006 8        48.100    20654194.677 7  85812948.012 7        47.300
R11  21581682.102 7 115325957.600 7        46.200    21581679.442 7 115325905.604 7        44.900    21581689.307 7  89697940.922 7        44.600    21581689.322 7  89697954.948 7        44.700
R21  23319174.283 7 124785611.956 7        43.600    23319170.217 7 124785600.940 7        42.400    23319200.496 7  97055672.014 7        43.000    23319200.719 7  97055613.015 7        42.400    23319191.690 6  93498825.774 6        41.300
I02  39879964.219 6 156497534.447 6        40.600
C43  24237281.948 7 127367744.030 7        43.200    24237305.779 7  95112256.621 7        45.100    24237287.136 7 126209919.970 7        42.900                                                    24237289.533 7 102555877.175 7        42.700    24237300.886 6  97593583.827 6        40.600
C34  25114962.593 6 131980085.109 6        40.900    25114981.406 7  98556624.697 7        42.100    25114968.193 7 130780261.553 7        42.200                                                    25114968.347 6 106269657.350 6        41.400    25114978.355 6 101127644.290 6        39.600
J04  35775794.767 7 188003080.227 7        44.200    35775796.874 7 188003044.213 7        47.000    35775794.060 7 188003080.619 7        44.900    35775818.615 7 146495940.243 7        46.500    35775818.607 8 140391939.333 8        48.800
J07  36384868.810 6 191203777.920 6        39.400    36384871.005 7 191203774.923 7        42.600    36384865.062 8 191203787.663 8        48.000    36384891.200 8 148990001.633 8        49.500    36384890.197 8 142782081.273 8        50.100
G26  20358207.031 8 106983110.126 8        48.700                                                                                                    20358226.669 7  83363488.721 7        46.700    20358222.403 8  79890017.319 8        51.400
J02  38538389.270 7 202520609.494 7        45.500    38538391.456 8 202520386.476 8        48.400    38538387.956 7 202520616.753 7        46.100    38538409.383 8 157808308.702 8        49.300    38538407.263 8 151232957.504 8        48.800
R08  21366160.746 7 114414812.343 7        45.900    21366159.432 7 114414769.373 7        44.700    21366178.559 7  88989313.982 7        44.700    21366178.362 7  88989277.986 7        44.300
I10  36167413.130 8 141928705.628 8        48.000
G28  22317291.309 7 117278157.064 7        42.300    22317293.004 7 117278118.062 7        44.700                                                    22317311.212 7  91385586.323 7        47.500    22317312.574 8  87577838.886 8        49.500
I09  38390584.018 7 150652898.765 7        42.200
G32  22474640.352 7 118105034.285 7        43.200                                                                                                    22474668.421 7  92029901.736 7        43.100    22474667.293 7  88195292.470 7        46.100
C03                                                                                                  36029554.253 6 187615363.315 6        40.600    36029555.890 7 145076096.790 7        44.900    36029548.927 7 152452818.176 7        44.400
C59                                                                                                  36934548.914 6 192327894.130 6        41.900                                                    36934532.871 7 156282104.382 7        45.000    36934542.587 7 148720100.375 7        44.700
C32  23197841.781 7 121905432.623 7        46.100    23197857.146 8  91033484.600 8        49.200    23197846.333 7 120797265.844 7        46.500                                                    23197844.330 7  98157647.229 7        46.400    23197853.410 7  93408136.603 7        44.200
G29
I03  35634927.609 7 139839115.581 7        47.100
C11                                                                                                  24764886.177 6 128957266.021 6        40.000    24764900.857 7  99718031.076 7        42.600    24764887.665 7 104788373.896 7        42.200
C60                                                                                                  37411903.357 6 194813601.865 6        41.400                                                    37411887.500 7 158301947.773 7        44.800    37411899.060 7 150642224.257 7        44.900
R02  21645537.245 7 115504752.189 7        45.100    21645536.346 7 115504758.187 7        43.400    21645551.440 7  89837053.602 7        43.700    21645551.305 7  89837011.604 7        43.300
G16  20253507.356 7 106432919.883 7        46.300                                                    20253528.082 6  82934827.347 6        38.300
R01  19149466.377 7 102364870.566 7        46.200    19149463.064 7 102364823.581 7        45.100    19149478.299 7  79617127.981 7        42.900    19149478.465 7  79617096.972 7        43.100
G27  22686468.720 6 119218230.088 6        41.800                                                                                                    22686497.112 7  92897338.501 7        43.200    22686495.274 7  89026617.894 7        47.000
G31  21230208.484 7 111565510.944 7        44.700                                                                                                    21230224.604 7  86934183.644 7        45.200
E07  26000296.540 7 136632465.115 7        44.000    26000320.599 7 102030716.933 7        44.800    26000316.225 7 104692326.534 7        46.800    26000320.716 7 103361561.036 7        47.400    26000302.093 7 110902899.046 7        46.500
E27  25164835.466 7 132242104.292 7        46.200    25164846.606 7  98752229.040 7        47.000    25164843.684 8 101328381.507 8        48.400    25164847.032 8 100040249.060 8        50.000    25164834.636 8 107339296.609 8        48.600
E21  23543131.201 8 123719999.848 8        50.100    23543145.631 8  92388518.669 8        50.000    23543141.755 8  94798648.241 8        50.400    23543145.737 8  93593355.255 8        51.900    23543132.652 8 100422021.107 8        52.500
E29  23162848.635 8 121721590.105 8        50.300    23162860.040 8  90895988.068 8        49.300    23162857.237 8  93267395.571 8        49.900    23162860.775 8  92081529.620 8        52.000    23162848.810 8  98799899.941 8        51.600
E19  24334398.268 7 127878140.704 7        44.400    24334410.292 7  95493389.139 7        43.100    24334406.895 7  97984539.153 7        44.700    24334410.678 7  96738932.950 7        46.100    24334397.521 7 103797114.929 7        44.100
> 2024 10 17  8 52 30.0000000  0 43       -.000418007000
C41  22502897.421 8 118253475.075 8        48.000    22502921.316 8  88306283.581 8        51.000    22502901.330 8 117178502.893 8        48.100                                                    22502904.800 7  95217104.636 7        45.600    22502917.520 7  90609917.462 7        45.800
C40  36898666.617 7 193903989.724 7        47.000    36898678.656 7 144798489.987 7        47.100    36898670.604 7 192141071.765 7        46.200                                                    36898666.972 7 156130339.432 7        45.100    36898676.259 7 148575694.403 7        43.700
C39  36667069.352 7 192686770.088 7        47.100    36667072.742 8 143889523.010 8        48.400    36667071.714 7 190935068.291 7        45.400                                                    36667062.312 7 155150355.428 7        44.900    36667070.176 7 147643100.727 7        44.800
C25  23816652.344 7 125157304.776 7        43.900    23816659.347 7  93461487.739 7        45.600    23816655.343 7 124019573.539 7        42.700                                                    23816649.422 7 100776039.701 7        43.700    23816657.637 7  95899800.148 7        43.400
C23  22708211.604 7 119332426.861 7        47.800    22708215.164 8  89111921.340 8        50.200    22708216.132 7 118247654.176 7        47.200                                                    22708203.101 7  96085879.607 7        45.200    22708211.868 7  91436572.296 7        45.600
C16                                                                                                  36889178.947 7 192091639.464 7        44.900    36889181.531 7 148537395.936 7        45.300    36889170.791 6 156090168.098 6        41.600
C13                                                                                                  38739476.363 6 201726617.071 6        38.900    38739493.197 6 155987769.257 6        41.800    38739480.355 6 163919374.321 6        40.100
C04                                                                                                  38471430.494 6 200330839.746 6        36.900    38471436.690 7 154908543.398 7        42.600    38471428.629 6 162785211.513 6        40.200
G03  22733408.854 7 119464854.905 7        42.500                                                                                                    22733442.376 7  93089511.655 7        43.500    22733442.816 8  89210815.398 8        48.900
C02                                                                                                  36860666.714 6 191943172.774 6        37.500    36860671.016 7 148422656.274 7        46.100    36860664.019 6 155969541.226 6        41.300
C01                                                                                                  37309514.835 6 194280432.430 6        39.400    37309519.969 7 150229983.438 7        44.300    37309512.434 6 157868761.859 6        40.500
C06                                                                                                  36756362.594 7 191400021.074 7        44.300    36756359.289 7 148002591.380 7        44.300    36756350.767 7 155528169.983 7        42.100
R12  20653938.491 8 110329658.475 8        49.600    20653936.589 8 110329620.480 8        48.600    20653952.771 7  85811975.608 7        46.800    20653952.413 7  85811943.606 7        45.500
R11  21593834.125 7 115390882.425 7        46.900    21593829.592 7 115390830.442 7        44.700    21593839.994 7  89748438.011 7        45.100    21593839.233 7  89748452.022 7        45.800
R21  23308392.824 7 124727913.551 7        43.600    23308387.459 7 124727902.564 7        42.200    23308417.143 7  97010796.144 7        42.300    23308416.761 6  97010737.129 6        40.400    23308408.493 6  93455594.580 6        41.100
I02  39876934.064 6 156485649.784 6        38.800
C43  24226429.377 7 127310710.180 7        43.000    24226452.945 7  95069666.635 7        45.800    24226433.834 7 126153404.629 7        43.000                                                    24226436.830 7 102509953.953 7        43.400    24226447.391 6  97549882.746 6        40.200
C34  25113826.038 6 131974116.621 6        41.300    25113845.646 7  98552168.101 7        42.600    25113831.692 7 130774347.317 7        42.400                                                    25113832.422 7 106264851.840 7        42.600    25113841.409 6 101123071.404 6        39.200
J04  35773521.694 7 187991133.386 7        43.500    35773523.600 7 187991097.377 7        46.900    35773520.752 7 187991133.771 7        44.900    35773545.324 7 146486631.014 7        47.100    35773545.038 8 140383018.003 8        48.800
J07  36384277.346 6 191200665.982 6        39.800    36384278.504 7 191200662.993 7        42.600    36384272.709 7 191200675.730 7        47.600    36384298.804 8 148987576.797 8        49.300    36384297.726 8 142779757.485 8        50.300
G26  20365473.019 8 107021299.510 8        48.500                                                                                                    20365493.587 7  83393246.751 7        45.300    20365489.698 8  79918535.438 8        51.400
J02  38542470.488 7 202542049.954 7        46.200    38542471.928 8 202541826.955 8        48.300    38542468.790 7 202542057.205 7        47.000    38542489.632 8 157825015.616 8        48.600    38542487.142 8 151248968.317 8        49.300
R08  21387234.620 7 114527663.195 7        45.700    21387233.627 7 114527620.226 7        44.800    21387253.536 7  89077086.709 7        46.200    21387253.040 7  89077050.705 7        45.100
I10  36166512.886 8 141925173.337 8        48.100
G28  22322011.247 7 117302957.877 7        42.200    22322012.436 7 117302918.882 7        45.100                                                    22322029.722 7  91404911.515 7        46.100    22322032.049 8  87596358.844 8        49.500
I09  38390482.186 6 150652501.852 6        39.600
G32  22489921.845 7 118185333.490 7        44.100                                                                                                    22489949.760 7  92092472.395 7        43.600    22489947.820 7  88255255.988 7        46.900
C03                                                                                                  36029079.907 6 187612892.865 6        40.700    36029081.309 7 145074186.539 7        45.200    36029074.460 7 152450810.779 7        44.300
C59                                                                                                  36934195.927 6 192326056.277 6        41.900                                                    36934179.768 7 156280611.016 7        44.500    36934189.504 7 148718679.287 7        44.700
C32  23190396.620 7 121866304.216 7        46.900    23190411.045 8  91004265.268 8        49.200    23190400.315 7 120758493.125 7        47.100                                                    23190398.470 7  98126141.194 7        45.600    23190407.599 7  93378155.032 7        44.400
I03  35624718.362 7 139799051.783 7        47.500
C11                                                                                                  24757385.807 6 128918201.120 6        39.900    24757398.417 7  99687823.904 7        43.500    24757385.484 7 104756630.705 7        42.400
C60                                                                                                  37411538.017 6 194811699.244 6        41.600                                                    37411522.142 7 158300401.792 7        44.600    37411533.595 7 150640753.092 7        45.100
R02  21625406.600 7 115397329.085 7        43.900    21625405.180 7 115397335.098 7        43.300    21625419.659 7  89753502.352 7        44.300    21625420.318 7  89753460.339 7        43.700
G16  20248178.177 7 106404916.377 7        46.900                                                    20248199.167 6  82913006.619 6        38.700
R01  19149572.120 7 102365442.003 7        46.000    19149569.451 7 102365394.993 7        44.800    19149585.278 7  79617572.346 7        43.600    19149585.583 7  79617541.359 7        42.600
G27  22665626.651 6 119108708.958 6        41.100                                                                                                    22665656.034 7  92811997.644 7        42.800    22665654.054 7  88944832.960 7        47.600
G31  21230333.147 7 111566161.866 7        46.300                                                                                                    21230349.190 7  86934690.891 7        45.000
E07  26012281.597 7 136695444.101 7        44.500    26012305.375 7 102077746.666 7        44.800    26012300.954 7 104740583.096 7        46.000    26012305.004 7 103409204.184 7        47.600    26012287.023 7 110954018.309 7        46.500
E27  25176317.728 7 132302441.727 7        47.400    25176327.947 7  98797286.223 7        46.800    25176325.128 8 101374614.099 8        48.200    25176328.784 8 100085893.963 8        49.700    25176316.525 8 107388271.810 8        48.400
E21  23543124.094 8 123719962.170 8        49.800    23543138.180 8  92388490.659 8        49.600    23543134.521 8  94798619.490 8        50.900    23543138.412 8  93593326.877 8        52.300    23543125.457 8 100421990.618 8        52.500
E29  23162537.563 8 121719954.302 8        49.700    23162548.900 8  90894766.473 8        49.200    23162546.112 8  93266142.110 8        50.600    23162549.555 8  92080292.085 8        52.100    23162537.548 8  98798572.133 8        51.400
E19  24322404.760 7 127815113.159 7        43.700    24322416.474 7  95446323.158 7        43.300    24322413.354 7  97936245.377 7        45.100    24322416.966 7  96691253.055 7        46.400    24322403.779 7 103745956.248 7        44.300
> 2024 10 17  8 53  0.0000000  0 44       -.000420033000
C41  22513163.043 7 118307418.940 7        47.900    22513186.371 8  88346566.260 8        50.700    22513166.885 8 117231956.376 8        48.000                                                    22513169.973 7  95260539.909 7        46.300    22513183.050 7  90651251.018 7        46.000
C40  36890809.246 7 193862698.550 7        46.900    36890820.760 7 144767655.817 7        47.100    36890813.304 7 192100155.972 7        46.100                                                    36890809.346 7 156097092.104 7        45.300    36890818.314 7 148544055.853 7        43.700
C39  36663795.051 7 192669565.985 7        46.900    36663798.819 8 143876675.804 8        48.600    36663798.443 7 190918020.578 7        45.500                                                    36663788.559 7 155136502.777 7        45.300    36663796.362 7 147629918.369 7        44.500
C25  23825252.035 7 125202484.470 7        44.700    23825256.488 7  93495225.778 7        44.900    23825255.051 7 124064342.471 7        43.700                                                    23825246.823 7 100812418.121 7        43.800    23825254.999 7  95934418.321 7        43.100
C23  22708978.571 8 119336454.837 8        48.000    22708981.472 8  89114929.354 8        49.900    22708982.563 7 118251645.546 7        47.300                                                    22708969.300 7  96089123.005 7        46.300    22708977.823 7  91439658.774 7        45.400
C16                                                                                                  36886123.288 7 192075729.107 7        44.900    36886125.957 7 148525093.065 7        44.900    36886115.380 6 156077239.655 6        41.500
C13                                                                                                  38749769.530 6 201780217.109 6        39.000    38749786.594 6 156029216.186 6        41.800    38749773.494 6 163962928.723 6        40.300
C04                                                                                                  38470984.983 6 200328521.396 6        36.500    38470991.336 7 154906750.771 7        42.000    38470983.349 6 162783327.722 6        40.600
G03  22733972.528 6 119467812.846 6        40.300                                                                                                    22734005.073 7  93091816.383 7        42.200    22734005.847 8  89213024.086 8        48.600
C02                                                                                                  36860314.299 6 191941337.410 6        36.800    36860318.515 7 148421237.117 7        45.900    36860311.616 6 155968049.896 6        41.300
C01                                                                                                  37309061.630 6 194278071.132 6        39.400    37309066.599 7 150228157.592 7        43.800    37309058.998 6 157866843.157 6        41.300
C06                                                                                                  36753707.314 7 191386196.286 7        43.900    36753703.980 7 147991901.215 7        44.300    36753696.009 7 155516936.240 7        43.000
R12  20653748.182 8 110328638.663 8        49.800    20653745.858 8 110328600.668 8        48.600    20653761.519 7  85811182.659 7        47.900    20653761.420 7  85811150.665 7        46.300
R11  21605974.095 7 115455777.789 7        45.100    21605972.861 7 115455725.813 7        44.600    21605984.807 7  89798912.179 7        45.900    21605983.790 7  89798926.168 7        44.900
R21  23297679.375 6 124670608.676 6        41.700    23297677.092 6 124670597.673 6        41.600    23297708.296 7  96966226.307 7        43.200    23297708.587 7  96966167.333 7        43.100    23297698.646 6  93412658.172 6        40.700
I02  39873911.882 6 156473791.811 6        39.400
C43  24215613.807 7 127253875.497 7        43.500    24215637.140 7  95027225.363 7        45.600    24215617.614 7 126097086.617 7        43.200                                                    24215621.707 7 102464191.134 7        43.600    24215632.328 6  97506334.278 6        40.800
C34  25112766.788 7 131968549.813 7        42.200    25112786.430 7  98548011.478 7        42.500    25112772.273 7 130768831.133 7        42.100                                                    25112773.613 7 106260369.789 7        42.500    25112781.790 6 101118806.299 6        39.600
J04  35771267.303 7 187979288.655 7        43.700    35771269.388 7 187979252.647 7        46.800    35771266.894 7 187979289.051 7        45.400    35771291.692 7 146477401.360 7        47.000    35771290.695 8 140374172.919 8        49.000
J07  36383688.756 6 191197570.866 6        40.200    36383689.646 7 191197567.868 7        42.400    36383683.664 7 191197580.606 7        46.000    36383709.820 8 148985165.072 8        49.300    36383708.916 8 142777446.258 8        49.700
G26  20372802.357 8 107059812.815 8        48.000                                                                                                    20372822.262 7  83423257.185 7        46.300    20372818.483 8  79947295.441 8        51.900
J02  38546552.280 7 202563497.410 7        45.900    38546553.484 8 202563274.402 8        48.600    38546550.247 7 202563504.669 7        47.000    38546571.037 8 157841727.969 8        49.300    38546568.474 8 151264984.339 8        49.100
R08  21408380.156 7 114640900.344 7        45.100    21408380.142 7 114640857.390 7        43.700    21408399.655 7  89165159.871 7        45.500    21408399.326 7  89165123.882 7        45.100
I10  36165616.693 8 141921655.838 8        48.800
G28  22326750.524 7 117327861.264 7        42.800    22326751.748 7 117327822.249 7        45.300                                                    22326767.850 7  91424316.618 7        44.600    22326771.068 8  87614955.372 8        49.600
I09  38390395.630 6 150652161.205 6        40.600
G32  22505272.083 7 118265997.443 7        44.100                                                                                                    22505301.594 7  92155327.269 7        45.500    22505297.997 7  88315491.879 7        46.700
C03                                                                                                  36028608.645 6 187610437.743 6        40.500    36028609.850 7 145072288.139 7        45.000    36028602.991 7 152448815.843 7        43.600
C59                                                                                                  36933846.240 6 192324234.394 6        41.800                                                    36933829.892 7 156279130.641 7        44.800    36933839.550 7 148717270.546 7        44.600
C32  23183042.382 7 121827657.232 7        47.100    23183056.822 8  90975405.472 8        48.600    23183045.720 7 120720197.483 7        47.000                                                    23183044.329 7  98095022.821 7        46.300    23183053.017 7  93348542.372 7        44.100
G29
I03  35614513.252 7 139759003.177 7        47.900
C11                                                                                                  24749938.088 6 128879428.050 6        40.500    24749953.704 7  99657842.440 7        43.800    24749939.743 7 104725124.677 7        42.500
C60                                                                                                  37411175.579 6 194809812.585 6        41.700                                                    37411159.654 7 158298868.778 7        44.500    37411171.245 7 150639294.276 7        45.000
R02  21605358.171 7 115290349.115 7        44.600    21605357.412 7 115290355.113 7        43.300    21605371.969 7  89670295.729 7        44.100    21605372.326 7  89670253.730 7        44.200
G16  20242948.418 7 106377430.562 7        46.400                                                    20242968.766 6  82891589.290 6        38.800
R01  19149834.215 7 102366843.472 7        45.900    19149831.424 7 102366796.479 7        44.600    19149847.649 7  79618662.320 7        43.500    19149847.511 7  79618631.341 7        42.600
G27  22644811.488 6 118999326.961 6        40.700                                                                                                    22644840.855 7  92726765.173 7        43.400    22644839.145 7  88863151.893 7        47.800
G31  21230474.510 7 111566906.871 7        45.800                                                                                                    21230490.915 7  86935271.486 7        45.600
E07  26024311.214 7 136758663.204 7        44.800    26024335.771 7 102124955.664 7        45.300    26024331.169 7 104789023.662 7        46.000    26024335.416 7 103457028.955 7        47.600    26024316.960 7 111005332.479 7        46.400
E27  25187816.624 7 132362868.542 7        47.400    25187827.135 7  98842410.156 7        46.300    25187823.935 8 101420915.153 8        48.200    25187827.546 8 100131606.453 8        49.800    25187815.664 8 107437319.559 8        48.600
E21  23543173.187 8 123720220.404 8        50.600    23543187.307 8  92388683.628 8        50.300    23543183.354 8  94798817.473 8        50.400    23543187.479 8  93593522.344 8        52.400    23543174.524 8 100422200.308 8        52.600
E29  23162293.348 8 121718671.968 8        50.000    23162305.014 8  90893808.830 8        49.000    23162302.267 8  93265159.491 8        50.600    23162305.577 8  92079321.955 8        52.200    23162293.801 8  98797531.243 8        51.500
E19  24310447.470 7 127752275.493 7        44.100    24310459.110 7  95399399.003 7        43.700    24310455.673 7  97888097.100 7        44.800    24310459.360 7  96643716.848 7        46.200    24310446.524 7 103694951.696 7        44.500
> 2024 10 17  8 53 30.0000000  0 43       -.000422043000
C41  22523507.155 7 118361779.628 7        47.600    22523531.368 8  88387160.195 8        51.100    22523511.411 8 117285822.877 8        48.500                                                    22523514.967 7  95304310.781 7        46.600    22523528.112 7  90692903.937 7        46.700
C40  36882979.322 7 193821551.732 7        47.200    36882990.810 7 144736929.443 7        47.100    36882982.820 7 192059383.228 7        46.100                                                    36882979.367 7 156063961.001 7        45.100    36882988.079 7 148512527.903 7        43.800
C39  36660516.028 7 192652333.699 7        46.800    36660519.676 8 143863807.559 8        48.900    36660518.864 7 190900944.942 7        45.700                                                    36660509.446 7 155122627.443 7        45.300    36660517.280 7 147616714.424 7        44.600
C25  23833843.442 7 125247644.729 7        43.500    23833850.536 7  93528949.319 7        45.800    23833847.872 7 124109092.185 7        42.900                                                    23833840.795 7 100848780.906 7        43.700    23833848.844 7  95969021.608 7        43.200
C23  22709764.360 8 119340584.269 8        48.000    22709766.737 8  89118013.142 8        50.300    22709768.268 7 118255737.446 7        47.500                                                    22709754.859 7  96092448.083 7        46.200    22709763.764 7  91442822.995 7        45.800
C16                                                                                                  36883058.450 7 192059769.689 7        45.100    36883060.707 7 148512752.272 7        44.900    36883050.588 6 156064271.351 6        41.700
C13                                                                                                  38760066.304 6 201833833.039 6        38.900    38760083.073 7 156070675.400 7        42.900    38760069.857 6 164006496.036 6        39.900
C04                                                                                                  38470545.192 6 200326228.483 6        36.200    38470550.896 7 154904977.806 7        42.600    38470542.975 6 162781464.584 6        40.200
G03  22734636.443 6 119471299.974 6        40.200                                                                                                    22734668.978 6  93094533.522 6        41.400    22734669.701 8  89215627.968 8        48.200
C02                                                                                                  36859967.109 6 191939530.845 6        37.100    36859971.427 7 148419840.229 7        45.600    36859964.649 6 155966581.963 6        41.500
C01                                                                                                  37308612.764 6 194275736.290 6        39.300    37308618.385 7 150226352.189 7        44.400    37308610.539 6 157864945.945 6        41.300
C06                                                                                                  36751042.849 7 191372321.391 7        44.100    36751039.478 7 147981172.309 7        43.900    36751031.435 7 155505661.787 7        42.600
R12  20653609.492 8 110327899.813 8        49.600    20653607.389 8 110327861.825 8        48.200    20653622.159 7  85810608.228 7        45.100    20653622.296 7  85810576.240 7        45.300
R11  21618114.853 7 115520653.610 7        45.500    21618114.494 7 115520601.634 7        44.300    21618124.686 7  89849371.135 7        45.400    21618124.111 7  89849385.109 7        44.400
R21  23287043.897 7 124613712.685 7        42.200    23287044.316 7 124613701.716 7        42.400    23287074.399 7  96921974.564 7        42.900    23287075.036 6  96921915.563 6        41.500    23287066.058 6  93370028.217 6        40.700
I02  39870899.595 6 156461968.925 6        40.100
C43  24204838.933 7 127197253.562 7        42.800    24204862.160 7  94984942.947 7        45.500    24204843.828 7 126040979.438 7        43.800                                                    24204846.305 7 102418599.590 7        43.000    24204857.914 6  97462948.824 6        41.500
C34  25111786.478 6 131963396.938 6        41.700    25111806.105 7  98544163.949 7        43.100    25111791.775 6 130763725.138 6        41.500                                                    25111792.180 6 106256221.025 6        41.900    25111800.846 6 101114858.362 6        39.400
J04  35769034.569 7 187967557.240 7        43.700    35769036.741 7 187967521.237 7        46.600    35769034.128 7 187967557.633 7        45.400    35769058.875 7 146468260.015 7        47.500    35769058.332 8 140365412.462 8        48.800
J07  36383104.446 6 191194503.826 6        38.200    36383105.818 7 191194500.816 7        42.400    36383100.229 7 191194513.569 7        46.200    36383126.320 8 148982775.227 8        49.400    36383125.078 8 142775156.008 8        50.200
G26  20380194.390 8 107098659.071 8        48.200                                                                                                    20380214.223 7  83453527.055 7        45.600    20380210.494 8  79976304.076 8        51.800
J02  38550635.435 7 202584962.747 7        45.300    38550637.773 8 202584739.747 8        48.700    38550634.034 7 202584969.999 7        46.700    38550655.720 8 157858454.255 8        49.300    38550653.245 8 151281013.705 8        48.800
R08  21429600.890 7 114754531.144 7        46.000    21429600.349 7 114754488.167 7        44.700    21429619.380 7  89253539.215 7        45.000    21429618.877 7  89253503.212 7        44.100
I10  36164725.568 8 141918161.541 8        48.200
G28  22331512.329 7 117352879.258 7        43.000    22331513.807 7 117352840.260 7        45.200                                                    22331529.764 7  91443811.030 7        46.200    22331531.621 8  87633637.510 8        49.900
I09  38390326.522 6 150651885.230 6        41.700
G32  22520691.968 7 118347035.643 7        43.600                                                                                                    22520722.711 7  92218473.781 7        44.900    22520719.081 7  88376007.248 7        46.400
C03                                                                                                  36028141.959 6 187608009.091 6        40.800    36028143.233 7 145070410.206 7        45.200    36028136.557 7 152446842.405 7        44.300
C59                                                                                                  36933501.256 6 192322439.635 6        41.800                                                    36933485.237 7 156277672.294 7        44.200    36933494.829 7 148715882.780 7        44.800
C32  23175781.953 7 121789503.953 7        47.300    23175796.561 8  90946914.371 8        48.500    23175785.644 7 120682391.062 7        47.200                                                    23175784.116 7  98064301.986 7        46.400    23175792.146 7  93319308.022 7        43.500
I03  35604313.652 8 139718978.151 8        48.000
C11                                                                                                  24742551.246 6 128840960.097 6        40.500    24742565.677 7  99628096.909 7        44.300    24742552.026 7 104693866.582 7        42.700
C60                                                                                                  37410818.191 6 194807952.997 6        41.500                                                    37410802.560 7 158297357.762 7        44.200    37410814.136 7 150637856.380 7        45.200
R02  21585397.623 7 115183828.141 7        45.500    21585395.718 7 115183834.146 7        43.900    21585410.306 7  89587446.122 7        43.900    21585410.174 7  89587404.133 7        44.000
G16  20237818.295 7 106350473.230 7        47.500                                                    20237838.517 6  82870583.762 6        38.700
R01  19150254.364 7 102369086.569 7        46.100    19150251.002 7 102369039.569 7        44.300    19150266.097 7  79620406.895 7        43.600    19150267.144 7  79620375.908 7        42.800
G27  22624026.560 7 118890098.474 7        42.300                                                                                                    22624054.317 7  92641652.316 7        42.800    22624053.715 7  88781585.460 7        47.400
G31  21230636.889 7 111567758.040 7        45.500                                                                                                    21230652.903 7  86935934.771 7        45.900
E07  26036389.321 7 136822132.811 7        45.500    26036413.724 7 102172351.750 7        45.600    26036409.017 7 104837656.149 7        45.900    26036413.284 8 103505043.252 8        48.200    26036395.124 7 111056849.965 7        46.500
E27  25199334.412 7 132423394.352 7        47.200    25199344.819 7  98887608.023 7        46.800    25199341.629 8 101467292.103 8        48.200    25199345.182 8 100177393.854 8        50.000    25199333.150 8 107486447.660 8        48.800
E21  23543280.558 8 123720784.724 8        50.100    23543294.526 8  92389105.145 8        49.900    23543290.649 8  94799249.979 8        50.500    23543294.807 8  93593949.355 8        52.600    23543282.149 8 100422658.443 8        52.700
E29  23162118.892 8 121717755.073 8        50.500    23162130.724 8  90893124.083 8        49.600    23162127.462 8  93264456.883 8        50.400    23162131.141 8  92078628.286 8        51.900    23162119.343 8  98796786.969 8        51.600
E19  24298528.046 7 127689640.636 7        44.000    24298540.148 7  95352626.281 7        44.400    24298536.426 7  97840104.204 7        44.700    24298540.216 7  96596334.037 7        46.800    24298527.243 7 103644111.754 7        44.500
